city,region,country,"region_code","country_iso2","country_iso3",subregion,latitude,longitude
"Balajt e Poshtem",,Albania,,AL,ALB,"Southern Europe","41.4205556","20.1397228"
Ballaj,,Albania,,AL,ALB,"Southern Europe","41.3222222","19.8802776"
Ballgjin,,Albania,,AL,ALB,"Southern Europe","41.3086111","20.1933327"
Ballsh,,Albania,,AL,ALB,"Southern Europe","40.59889","19.73472"
Berat,,Albania,,AL,ALB,"Southern Europe","40.70583","19.95222"
Berberaj,,Albania,,AL,ALB,"Southern Europe","41.3144444","20.2027779"
Bic,,Albania,,AL,ALB,"Southern Europe","41.2825","20.145834"
Bilisht,,Albania,,AL,ALB,"Southern Europe","40.6275","20.99"
Bize,,Albania,,AL,ALB,"Southern Europe","41.3408333","20.1980553"
Blishte,,Albania,,AL,ALB,"Southern Europe","41.4430556","20.1466675"
Bulqize,,Albania,,AL,ALB,"Southern Europe","41.49167","20.22194"
Burrel,,Albania,,AL,ALB,"Southern Europe","41.61028","20.00889"
Celiku,,Albania,,AL,ALB,"Southern Europe","41.2761111","19.8522224"
Cerrik,,Albania,,AL,ALB,"Southern Europe","41.03167","19.97583"
Collak,,Albania,,AL,ALB,"Southern Europe","41.3152778","19.8661118"
Corovode,,Albania,,AL,ALB,"Southern Europe","40.50417","20.22722"
Dallashi,,Albania,,AL,ALB,"Southern Europe","41.2830556","19.8763885"
Delvine,,Albania,,AL,ALB,"Southern Europe","39.9511111","20.0977783"
Durres,,Albania,,AL,ALB,"Southern Europe","41.32355","19.45469"
Elbasan,,Albania,,AL,ALB,"Southern Europe","41.1125","20.08222"
Erseke,,Albania,,AL,ALB,"Southern Europe","40.33778","20.67889"
Fier,,Albania,,AL,ALB,"Southern Europe","40.72389","19.55611"
"Fier-Cifci",,Albania,,AL,ALB,"Southern Europe","40.71667","19.56667"
Fierze,,Albania,,AL,ALB,"Southern Europe","42.2647222","20.0269451"
"Fushe-Arrez",,Albania,,AL,ALB,"Southern Europe","42.0622222","20.0166664"
"Fushe-Kruje",,Albania,,AL,ALB,"Southern Europe","41.47833","19.71778"
Gjirokaster,,Albania,,AL,ALB,"Southern Europe","40.07583","20.13889"
Gjorkaj,,Albania,,AL,ALB,"Southern Europe","41.2780556","20.1705551"
Gramsh,,Albania,,AL,ALB,"Southern Europe","40.86972","20.18444"
"Gurra e Vogel",,Albania,,AL,ALB,"Southern Europe","41.2863889","19.8883324"
Himare,,Albania,,AL,ALB,"Southern Europe","40.1016667","19.7447224"
Kamere,,Albania,,AL,ALB,"Southern Europe","41.4719444","19.9708328"
Kamez,,Albania,,AL,ALB,"Southern Europe","41.38167","19.76028"
Kavaje,,Albania,,AL,ALB,"Southern Europe","41.18556","19.55694"
Kelcyre,,Albania,,AL,ALB,"Southern Europe","40.3130556","20.1894436"
Klos,,Albania,,AL,ALB,"Southern Europe","41.5069444","20.0866661"
Kokli,,Albania,,AL,ALB,"Southern Europe","41.3091667","19.9286118"
Konispol,,Albania,,AL,ALB,"Southern Europe","39.6588889","20.1813889"
Koplik,,Albania,,AL,ALB,"Southern Europe","42.2136111","19.436388"
Korce,,Albania,,AL,ALB,"Southern Europe","40.61861","20.78083"
Kotaj,,Albania,,AL,ALB,"Southern Europe","41.4333333","20.2008324"
Krrabe,,Albania,,AL,ALB,"Southern Europe","41.2155556","19.9713898"
Kruje,,Albania,,AL,ALB,"Southern Europe","41.50917","19.79278"
Kubes,,Albania,,AL,ALB,"Southern Europe","41.4166667","19.8511105"
Kucove,,Albania,,AL,ALB,"Southern Europe","40.80028","19.91667"
Kukes,,Albania,,AL,ALB,"Southern Europe","42.07694","20.42194"
Kurbnesh,,Albania,,AL,ALB,"Southern Europe","41.7797222","20.0836105"
Kurte,,Albania,,AL,ALB,"Southern Europe","41.4930556","19.9972229"
Kutreq,,Albania,,AL,ALB,"Southern Europe","41.3966667","19.9616661"
Lac,,Albania,,AL,ALB,"Southern Europe","41.63556","19.71306"
Leskovik,,Albania,,AL,ALB,"Southern Europe","40.1513889","20.5972214"
Lezhe,,Albania,,AL,ALB,"Southern Europe","41.78361","19.64361"
Libohove,,Albania,,AL,ALB,"Southern Europe","40.0311111","20.2630558"
Librazhd,,Albania,,AL,ALB,"Southern Europe","41.20000211","20.3667036"
"Librazhd-Qender",,Albania,,AL,ALB,"Southern Europe","41.19694","20.33556"
Livadhet,,Albania,,AL,ALB,"Southern Europe","41.4080556","19.9047222"
Lushnje,,Albania,,AL,ALB,"Southern Europe","40.94194","19.705"
"Mal Pjec",,Albania,,AL,ALB,"Southern Europe","41.4786111","19.9547215"
Maliq,,Albania,,AL,ALB,"Southern Europe","40.7058333","20.6997223"
Mamurras,,Albania,,AL,ALB,"Southern Europe","41.5775","19.69222"
Melcize,,Albania,,AL,ALB,"Southern Europe","41.3952778","19.8222218"
Memaliaj,,Albania,,AL,ALB,"Southern Europe","40.3516667","19.980278"
Metaj,,Albania,,AL,ALB,"Southern Europe","41.4933333","19.9052773"
Orikum,,Albania,,AL,ALB,"Southern Europe","40.3252778","19.4713898"
Panec,,Albania,,AL,ALB,"Southern Europe","41.2847222","20.0063896"
Panjet,,Albania,,AL,ALB,"Southern Europe","41.3208333","20.1561108"
Patos,,Albania,,AL,ALB,"Southern Europe","40.68333","19.61944"
"Patos Fshat",,Albania,,AL,ALB,"Southern Europe","40.64278","19.65083"
Peqin,,Albania,,AL,ALB,"Southern Europe","41.04611","19.75111"
Permet,,Albania,,AL,ALB,"Southern Europe","40.23361","20.35167"
"Perrenjas-Fshat",,Albania,,AL,ALB,"Southern Europe","41.0666667","20.5352783"
Peshk,,Albania,,AL,ALB,"Southern Europe","41.4055556","20.1980553"
Peshkopi,,Albania,,AL,ALB,"Southern Europe","41.685","20.42889"
Pogradec,,Albania,,AL,ALB,"Southern Europe","40.9025","20.6525"
Polican,,Albania,,AL,ALB,"Southern Europe","40.61222","20.09806"
Puke,,Albania,,AL,ALB,"Southern Europe","42.04444","19.89972"
Rinas,,Albania,,AL,ALB,"Southern Europe","41.2861111","20.166111"
Roskovec,,Albania,,AL,ALB,"Southern Europe","40.7375","19.70222"
Rreshen,,Albania,,AL,ALB,"Southern Europe","41.7675","19.87556"
Rrogozhine,,Albania,,AL,ALB,"Southern Europe","41.07639","19.66528"
Rubik,,Albania,,AL,ALB,"Southern Europe","41.7744444","19.7861118"
Ruc,,Albania,,AL,ALB,"Southern Europe","41.3219444","20.1105556"
Rucaj,,Albania,,AL,ALB,"Southern Europe","41.4661111","20.1555557"
Sarande,,Albania,,AL,ALB,"Southern Europe","39.87534","20.00477"
Selenice,,Albania,,AL,ALB,"Southern Europe","40.53056","19.63583"
Shejleret,,Albania,,AL,ALB,"Southern Europe","41.3072222","19.8858337"
Shengjin,,Albania,,AL,ALB,"Southern Europe","41.8136111","19.5938892"
Shengjun,,Albania,,AL,ALB,"Southern Europe","41.4891667","20.1375008"
Shijak,,Albania,,AL,ALB,"Southern Europe","41.34556","19.56722"
Shkoder,,Albania,,AL,ALB,"Southern Europe","42.06828","19.51258"
Shugyrk,,Albania,,AL,ALB,"Southern Europe","41.44","19.9302769"
Tejlumaj,,Albania,,AL,ALB,"Southern Europe","41.4783333","20.0258331"
Tepelene,,Albania,,AL,ALB,"Southern Europe","40.29583","20.01917"
Tirana,,Albania,,AL,ALB,"Southern Europe","41.3275","19.81889"
"Ura Vajgurore",,Albania,,AL,ALB,"Southern Europe","40.7688889","19.8777771"
"Vakumona i Siperme",,Albania,,AL,ALB,"Southern Europe","41.2816667","20.0697231"
Varros,,Albania,,AL,ALB,"Southern Europe","41.3025","20.0933342"
Vlore,,Albania,,AL,ALB,"Southern Europe","40.46667","19.48972"
Vore,,Albania,,AL,ALB,"Southern Europe","41.3908333","19.6550007"
Xhyre,,Albania,,AL,ALB,"Southern Europe","41.2869444","20.0283337"
Abadla,,Algeria,,DZ,DZA,"Northern Africa","31.01708478","-2.733306317"
"Abou el Hassan",,Algeria,,DZ,DZA,"Northern Africa","36.41657","1.19616"
Adrar,,Algeria,,DZ,DZA,"Northern Africa","27.87429","-0.29388"
Aflou,,Algeria,,DZ,DZA,"Northern Africa","34.11279","2.10228"
"Ain Abid",,Algeria,,DZ,DZA,"Northern Africa","36.23194","6.94333"
"Ain Arnat",,Algeria,,DZ,DZA,"Northern Africa","36.18683","5.31347"
"Ain Beida",,Algeria,,DZ,DZA,"Northern Africa","35.79639","7.39278"
"Ain Benian",,Algeria,,DZ,DZA,"Northern Africa","36.80277","2.92185"
"Ain Bessem",,Algeria,,DZ,DZA,"Northern Africa","36.29333","3.67319"
"Ain Boucif",,Algeria,,DZ,DZA,"Northern Africa","35.89123","3.1585"
"Ain Defla",,Algeria,,DZ,DZA,"Northern Africa","36.26405","1.9679"
"Ain Deheb",,Algeria,,DZ,DZA,"Northern Africa","34.84218","1.54697"
"Ain Fakroun",,Algeria,,DZ,DZA,"Northern Africa","35.97108","6.87374"
"Ain Kercha",,Algeria,,DZ,DZA,"Northern Africa","35.92472","6.69528"
"Ain Merane",,Algeria,,DZ,DZA,"Northern Africa","36.16277","0.97037"
"Ain Oussera",,Algeria,,DZ,DZA,"Northern Africa","35.45139","2.90583"
"Ain Sefra",,Algeria,,DZ,DZA,"Northern Africa","32.75","-0.58333"
"Ain Smara",,Algeria,,DZ,DZA,"Northern Africa","36.2674","6.50135"
"Ain Taya",,Algeria,,DZ,DZA,"Northern Africa","36.79333","3.28694"
"Ain Temouchent",,Algeria,,DZ,DZA,"Northern Africa","35.29749","-1.14037"
"Ain Touta",,Algeria,,DZ,DZA,"Northern Africa","35.37675","5.90001"
"Ain el Bell",,Algeria,,DZ,DZA,"Northern Africa","34.34381","3.22475"
"Ain el Berd",,Algeria,,DZ,DZA,"Northern Africa","35.36395","-0.51279"
"Ain el Bya",,Algeria,,DZ,DZA,"Northern Africa","35.80389","-0.30178"
"Ain el Hadjar",,Algeria,,DZ,DZA,"Northern Africa","34.75846","0.14528"
"Ain el Hadjel",,Algeria,,DZ,DZA,"Northern Africa","35.67003","3.88153"
"Ain el Hammam",,Algeria,,DZ,DZA,"Northern Africa","36.56471","4.30619"
"Ain el Melh",,Algeria,,DZ,DZA,"Northern Africa","34.84146","4.16383"
"Ain el Turk",,Algeria,,DZ,DZA,"Northern Africa","35.74381","-0.7693"
Akbou,,Algeria,,DZ,DZA,"Northern Africa","36.4575","4.53494"
Algiers,,Algeria,,DZ,DZA,"Northern Africa","36.73225","3.08746"
Amizour,,Algeria,,DZ,DZA,"Northern Africa","36.64022","4.90131"
"Ammi Moussa",,Algeria,,DZ,DZA,"Northern Africa","35.86781","1.11143"
Annaba,,Algeria,,DZ,DZA,"Northern Africa","36.9","7.76667"
Aoulef,,Algeria,,DZ,DZA,"Northern Africa","26.96667","1.08333"
Arbatache,,Algeria,,DZ,DZA,"Northern Africa","36.63773","3.37127"
Arhribs,,Algeria,,DZ,DZA,"Northern Africa","36.79361","4.31158"
Arris,,Algeria,,DZ,DZA,"Northern Africa","35.25881","6.34706"
Azazga,,Algeria,,DZ,DZA,"Northern Africa","36.74472","4.37222"
Azzaba,,Algeria,,DZ,DZA,"Northern Africa","36.73944","7.10528"
"BABOR - VILLE",,Algeria,,DZ,DZA,"Northern Africa","36.48994","5.5393"
"Bab Ezzouar",,Algeria,,DZ,DZA,"Northern Africa","36.72615","3.18291"
Baraki,,Algeria,,DZ,DZA,"Northern Africa","36.66655","3.09606"
Barbacha,,Algeria,,DZ,DZA,"Northern Africa","36.56667","4.96667"
Barika,,Algeria,,DZ,DZA,"Northern Africa","35.38901","5.36584"
Batna,,Algeria,,DZ,DZA,"Northern Africa","35.55597","6.17414"
Bechar,,Algeria,,DZ,DZA,"Northern Africa","31.61667","-2.21667"
Bejaia,,Algeria,,DZ,DZA,"Northern Africa","36.75587","5.08433"
"Ben Mehidi",,Algeria,,DZ,DZA,"Northern Africa","36.76967","7.90641"
"Beni Amrane",,Algeria,,DZ,DZA,"Northern Africa","36.66774","3.59115"
"Beni Douala",,Algeria,,DZ,DZA,"Northern Africa","36.61954","4.08282"
"Beni Mered",,Algeria,,DZ,DZA,"Northern Africa","36.52389","2.86131"
"Beni Mester",,Algeria,,DZ,DZA,"Northern Africa","34.87045","-1.42319"
"Beni Ounif",,Algeria,,DZ,DZA,"Northern Africa","32.04926984","-1.251381268"
"Beni Saf",,Algeria,,DZ,DZA,"Northern Africa","35.30099","-1.38226"
Bensekrane,,Algeria,,DZ,DZA,"Northern Africa","35.07465","-1.22431"
Berrahal,,Algeria,,DZ,DZA,"Northern Africa","36.83528","7.45333"
Berriane,,Algeria,,DZ,DZA,"Northern Africa","32.82648","3.76689"
Berrouaghia,,Algeria,,DZ,DZA,"Northern Africa","36.13516","2.91085"
Besbes,,Algeria,,DZ,DZA,"Northern Africa","36.70222","7.84722"
"Bir el Ater",,Algeria,,DZ,DZA,"Northern Africa","34.74488","8.06024"
"Bir el Djir",,Algeria,,DZ,DZA,"Northern Africa","35.72","-0.545"
Birine,,Algeria,,DZ,DZA,"Northern Africa","35.635","3.225"
Birkhadem,,Algeria,,DZ,DZA,"Northern Africa","36.71499","3.05002"
Biskra,,Algeria,,DZ,DZA,"Northern Africa","34.85038","5.72805"
Blida,,Algeria,,DZ,DZA,"Northern Africa","36.47004","2.8277"
Boghni,,Algeria,,DZ,DZA,"Northern Africa","36.54222","3.95306"
"Bordj Bou Arreridj",,Algeria,,DZ,DZA,"Northern Africa","36.07321","4.76108"
"Bordj Ghdir",,Algeria,,DZ,DZA,"Northern Africa","35.90111","4.89806"
"Bordj Zemoura",,Algeria,,DZ,DZA,"Northern Africa","36.27462","4.85668"
"Bordj el Kiffan",,Algeria,,DZ,DZA,"Northern Africa","36.74871","3.19249"
"Bou Arfa",,Algeria,,DZ,DZA,"Northern Africa","36.46298","2.81464"
"Bou Hanifia el Hamamat",,Algeria,,DZ,DZA,"Northern Africa","35.31473","-0.05037"
"Bou Ismail",,Algeria,,DZ,DZA,"Northern Africa","36.64262","2.69007"
"Bou Tlelis",,Algeria,,DZ,DZA,"Northern Africa","35.57272","-0.8996"
Boudjima,,Algeria,,DZ,DZA,"Northern Africa","36.80218","4.15187"
Boudouaou,,Algeria,,DZ,DZA,"Northern Africa","36.72735","3.40995"
Boufarik,,Algeria,,DZ,DZA,"Northern Africa","36.57413","2.91214"
Bougaa,,Algeria,,DZ,DZA,"Northern Africa","36.33293","5.08843"
Bougara,,Algeria,,DZ,DZA,"Northern Africa","36.54178","3.081"
Bouinan,,Algeria,,DZ,DZA,"Northern Africa","36.53167","2.99194"
Bouira,,Algeria,,DZ,DZA,"Northern Africa","36.37489","3.902"
Boukadir,,Algeria,,DZ,DZA,"Northern Africa","36.06629","1.12602"
Boumagueur,,Algeria,,DZ,DZA,"Northern Africa","35.5052","5.5525"
"Boumahra Ahmed",,Algeria,,DZ,DZA,"Northern Africa","36.45833","7.51389"
Boumerdas,,Algeria,,DZ,DZA,"Northern Africa","36.76639","3.47717"
Brezina,,Algeria,,DZ,DZA,"Northern Africa","33.09892","1.26082"
"Chabet el Ameur",,Algeria,,DZ,DZA,"Northern Africa","36.63709","3.69474"
Charef,,Algeria,,DZ,DZA,"Northern Africa","34.62098","2.79503"
Chebli,,Algeria,,DZ,DZA,"Northern Africa","36.57722","3.00917"
"Chelghoum el Aid",,Algeria,,DZ,DZA,"Northern Africa","36.16286","6.16651"
Chemini,,Algeria,,DZ,DZA,"Northern Africa","36.6","4.61667"
Cheraga,,Algeria,,DZ,DZA,"Northern Africa","36.76775","2.95924"
Cheria,,Algeria,,DZ,DZA,"Northern Africa","35.27306","7.75194"
Chetouane,,Algeria,,DZ,DZA,"Northern Africa","34.92129","-1.29512"
Chiffa,,Algeria,,DZ,DZA,"Northern Africa","36.46293","2.73873"
Chlef,,Algeria,,DZ,DZA,"Northern Africa","36.16525","1.33452"
Chorfa,,Algeria,,DZ,DZA,"Northern Africa","36.36505","4.32636"
Constantine,,Algeria,,DZ,DZA,"Northern Africa","36.365","6.61472"
"Dar Chioukh",,Algeria,,DZ,DZA,"Northern Africa","34.89638","3.48543"
"Dar el Beida",,Algeria,,DZ,DZA,"Northern Africa","36.71333","3.2125"
Debila,,Algeria,,DZ,DZA,"Northern Africa","33.51667","6.95"
Dellys,,Algeria,,DZ,DZA,"Northern Africa","36.91716","3.91311"
"Didouche Mourad",,Algeria,,DZ,DZA,"Northern Africa","36.4525","6.63639"
Djamaa,,Algeria,,DZ,DZA,"Northern Africa","33.53388","5.99306"
Djanet,,Algeria,,DZ,DZA,"Northern Africa","24.5529057","9.482252969"
Djelfa,,Algeria,,DZ,DZA,"Northern Africa","34.67279","3.263"
Djidiouia,,Algeria,,DZ,DZA,"Northern Africa","35.92989","0.82871"
Douera,,Algeria,,DZ,DZA,"Northern Africa","36.67","2.94444"
"Draa Ben Khedda",,Algeria,,DZ,DZA,"Northern Africa","36.73436","3.96223"
"Draa el Mizan",,Algeria,,DZ,DZA,"Northern Africa","36.53628","3.8334"
Drean,,Algeria,,DZ,DZA,"Northern Africa","36.68482","7.75111"
"Ech Chettia",,Algeria,,DZ,DZA,"Northern Africa","36.19591","1.25537"
"El Abadia",,Algeria,,DZ,DZA,"Northern Africa","36.26951","1.68609"
"El Abiodh Sidi Cheikh",,Algeria,,DZ,DZA,"Northern Africa","32.893","0.54839"
"El Achir",,Algeria,,DZ,DZA,"Northern Africa","36.06386","4.62744"
"El Affroun",,Algeria,,DZ,DZA,"Northern Africa","36.4701","2.62528"
"El Amria",,Algeria,,DZ,DZA,"Northern Africa","35.52439","-1.01577"
"El Aouinet",,Algeria,,DZ,DZA,"Northern Africa","35.86691","7.88673"
"El Attaf",,Algeria,,DZ,DZA,"Northern Africa","36.22393","1.67187"
"El Bayadh",,Algeria,,DZ,DZA,"Northern Africa","33.68318","1.01927"
"El Eulma",,Algeria,,DZ,DZA,"Northern Africa","36.15281","5.69016"
"El Golea",,Algeria,,DZ,DZA,"Northern Africa","30.56662132","2.883327595"
"El Hadjar",,Algeria,,DZ,DZA,"Northern Africa","36.80377","7.73684"
"El Hadjira",,Algeria,,DZ,DZA,"Northern Africa","32.61336","5.51259"
"El Idrissia",,Algeria,,DZ,DZA,"Northern Africa","34.44542","2.52749"
"El Kala",,Algeria,,DZ,DZA,"Northern Africa","36.89556","8.44333"
"El Khroub",,Algeria,,DZ,DZA,"Northern Africa","36.26333","6.69361"
"El Kseur",,Algeria,,DZ,DZA,"Northern Africa","36.67942","4.8555"
"El Malah",,Algeria,,DZ,DZA,"Northern Africa","35.39137","-1.09238"
"El Oued",,Algeria,,DZ,DZA,"Northern Africa","33.35608","6.86319"
"El Tarf",,Algeria,,DZ,DZA,"Northern Africa","36.7672","8.31377"
"Es Senia",,Algeria,,DZ,DZA,"Northern Africa","35.64779","-0.62397"
Feraoun,,Algeria,,DZ,DZA,"Northern Africa","36.56041","4.85454"
Freha,,Algeria,,DZ,DZA,"Northern Africa","36.75234","4.3155"
Frenda,,Algeria,,DZ,DZA,"Northern Africa","35.06544","1.04945"
Ghardaia,,Algeria,,DZ,DZA,"Northern Africa","32.49094","3.67347"
Guelma,,Algeria,,DZ,DZA,"Northern Africa","36.46214","7.42608"
Hadjout,,Algeria,,DZ,DZA,"Northern Africa","36.51257","2.41382"
"Hamma Bouziane",,Algeria,,DZ,DZA,"Northern Africa","36.41205","6.59603"
"Hammam Bou Hadjar",,Algeria,,DZ,DZA,"Northern Africa","35.37889","-0.96778"
Hammamet,,Algeria,,DZ,DZA,"Northern Africa","35.44862","7.95184"
"Hassi Messaoud",,Algeria,,DZ,DZA,"Northern Africa","31.68041","6.07286"
Heliopolis,,Algeria,,DZ,DZA,"Northern Africa","36.50361","7.44278"
Hennaya,,Algeria,,DZ,DZA,"Northern Africa","34.95139","-1.36806"
"I-n-Amenas",,Algeria,,DZ,DZA,"Northern Africa","28.0503408","9.550000772"
"I-n-Salah",,Algeria,,DZ,DZA,"Northern Africa","27.19351","2.46069"
Ighram,,Algeria,,DZ,DZA,"Northern Africa","36.46295","4.50532"
Illizi,,Algeria,,DZ,DZA,"Northern Africa","26.48333","8.46667"
"In Amguel",,Algeria,,DZ,DZA,"Northern Africa","23.69394004","5.164738727"
Isser,,Algeria,,DZ,DZA,"Northern Africa","36.71859","3.66924"
Jijel,,Algeria,,DZ,DZA,"Northern Africa","36.82055","5.76671"
Kerkera,,Algeria,,DZ,DZA,"Northern Africa","36.92917","6.58556"
"Khemis Miliana",,Algeria,,DZ,DZA,"Northern Africa","36.26104","2.22015"
"Khemis el Khechna",,Algeria,,DZ,DZA,"Northern Africa","36.64997","3.3308"
Khenchela,,Algeria,,DZ,DZA,"Northern Africa","35.43583","7.14333"
Kolea,,Algeria,,DZ,DZA,"Northern Africa","36.63888","2.76845"
"Ksar Chellala",,Algeria,,DZ,DZA,"Northern Africa","35.21222","2.31889"
"Ksar el Boukhari",,Algeria,,DZ,DZA,"Northern Africa","35.88889","2.74905"
"LArbaa Nait Irathen",,Algeria,,DZ,DZA,"Northern Africa","36.63112","4.19864"
Laghouat,,Algeria,,DZ,DZA,"Northern Africa","33.8","2.86514"
Lakhdaria,,Algeria,,DZ,DZA,"Northern Africa","36.56463","3.5933"
Larba,,Algeria,,DZ,DZA,"Northern Africa","36.5666667","3.1500001"
Larbaa,,Algeria,,DZ,DZA,"Northern Africa","36.56471","3.15434"
Lardjem,,Algeria,,DZ,DZA,"Northern Africa","35.74922","1.54778"
MSila,,Algeria,,DZ,DZA,"Northern Africa","35.70583","4.54194"
Makouda,,Algeria,,DZ,DZA,"Northern Africa","36.78567","4.06273"
Mansoura,,Algeria,,DZ,DZA,"Northern Africa","34.86158","-1.33935"
Mansourah,,Algeria,,DZ,DZA,"Northern Africa","36.08725","4.45192"
Mascara,,Algeria,,DZ,DZA,"Northern Africa","35.39664","0.14027"
Mazouna,,Algeria,,DZ,DZA,"Northern Africa","36.12232","0.89865"
Medea,,Algeria,,DZ,DZA,"Northern Africa","36.26417","2.75393"
Meftah,,Algeria,,DZ,DZA,"Northern Africa","36.6204","3.22248"
Megarine,,Algeria,,DZ,DZA,"Northern Africa","33.19195","6.08695"
Mehdia,,Algeria,,DZ,DZA,"Northern Africa","35.43058","1.75714"
Mekla,,Algeria,,DZ,DZA,"Northern Africa","36.68178","4.26378"
Melouza,,Algeria,,DZ,DZA,"Northern Africa","35.97999","4.18665"
Merouana,,Algeria,,DZ,DZA,"Northern Africa","35.63106","5.91186"
"Mers el Kebir",,Algeria,,DZ,DZA,"Northern Africa","35.7279","-0.7081"
Meskiana,,Algeria,,DZ,DZA,"Northern Africa","35.63058","7.66606"
Messaad,,Algeria,,DZ,DZA,"Northern Africa","34.15429","3.50309"
"Metlili Chaamba",,Algeria,,DZ,DZA,"Northern Africa","32.26667","3.63333"
Mila,,Algeria,,DZ,DZA,"Northern Africa","36.45028","6.26444"
Mostaganem,,Algeria,,DZ,DZA,"Northern Africa","35.93115","0.08918"
Mouzaia,,Algeria,,DZ,DZA,"Northern Africa","36.46695","2.68991"
Naama,,Algeria,,DZ,DZA,"Northern Africa","33.26667","-0.31667"
Naciria,,Algeria,,DZ,DZA,"Northern Africa","36.74625","3.83163"
Nedroma,,Algeria,,DZ,DZA,"Northern Africa","35.01361","-1.74799"
Oran,,Algeria,,DZ,DZA,"Northern Africa","35.69906","-0.63588"
Ouargla,,Algeria,,DZ,DZA,"Northern Africa","31.94932","5.32502"
"Oued Fodda",,Algeria,,DZ,DZA,"Northern Africa","36.18503","1.53299"
"Oued Rhiou",,Algeria,,DZ,DZA,"Northern Africa","35.96124","0.91896"
"Oued Sly",,Algeria,,DZ,DZA,"Northern Africa","36.10124","1.19949"
"Oued el Abtal",,Algeria,,DZ,DZA,"Northern Africa","35.45595","0.68778"
"Oued el Alleug",,Algeria,,DZ,DZA,"Northern Africa","36.55528","2.79028"
"Ouled Mimoun",,Algeria,,DZ,DZA,"Northern Africa","34.90472","-1.03394"
"Ouled Moussa",,Algeria,,DZ,DZA,"Northern Africa","36.68394","3.36661"
"Oum el Bouaghi",,Algeria,,DZ,DZA,"Northern Africa","35.87541","7.11353"
Oumache,,Algeria,,DZ,DZA,"Northern Africa","34.69292","5.68092"
"Ras el Aioun",,Algeria,,DZ,DZA,"Northern Africa","35.67384","5.6453"
"Ras el Oued",,Algeria,,DZ,DZA,"Northern Africa","35.9441","5.03107"
Reggane,,Algeria,,DZ,DZA,"Northern Africa","26.71576","0.1714"
Reghaia,,Algeria,,DZ,DZA,"Northern Africa","36.73587","3.34018"
Reguiba,,Algeria,,DZ,DZA,"Northern Africa","33.56391","6.70326"
Relizane,,Algeria,,DZ,DZA,"Northern Africa","35.73734","0.55599"
Remchi,,Algeria,,DZ,DZA,"Northern Africa","35.06196","-1.43362"
Robbah,,Algeria,,DZ,DZA,"Northern Africa","33.27967","6.90984"
Rouached,,Algeria,,DZ,DZA,"Northern Africa","36.45774","6.04267"
Rouiba,,Algeria,,DZ,DZA,"Northern Africa","36.73829","3.28079"
Rouissat,,Algeria,,DZ,DZA,"Northern Africa","31.92427","5.35018"
Saida,,Algeria,,DZ,DZA,"Northern Africa","34.83033","0.15171"
"Salah Bey",,Algeria,,DZ,DZA,"Northern Africa","35.85451","5.29053"
Saoula,,Algeria,,DZ,DZA,"Northern Africa","36.70456","3.02462"
Sebdou,,Algeria,,DZ,DZA,"Northern Africa","34.63703","-1.33143"
Seddouk,,Algeria,,DZ,DZA,"Northern Africa","36.54722","4.68611"
Sedrata,,Algeria,,DZ,DZA,"Northern Africa","36.12868","7.53376"
Sefra,,Algeria,,DZ,DZA,"Northern Africa","32.76041506","-0.579949383"
Setif,,Algeria,,DZ,DZA,"Northern Africa","36.19112","5.41373"
Sfizef,,Algeria,,DZ,DZA,"Northern Africa","35.23464","-0.24435"
"Sidi Abdelli",,Algeria,,DZ,DZA,"Northern Africa","35.06937","-1.13706"
"Sidi Aissa",,Algeria,,DZ,DZA,"Northern Africa","35.88548","3.77236"
"Sidi Akkacha",,Algeria,,DZ,DZA,"Northern Africa","36.46472","1.30258"
"Sidi Amrane",,Algeria,,DZ,DZA,"Northern Africa","33.49885","6.00803"
"Sidi Bel Abbes",,Algeria,,DZ,DZA,"Northern Africa","35.18994","-0.63085"
"Sidi Khaled",,Algeria,,DZ,DZA,"Northern Africa","34.387","4.98785"
"Sidi Merouane",,Algeria,,DZ,DZA,"Northern Africa","36.52056","6.26111"
"Sidi Moussa",,Algeria,,DZ,DZA,"Northern Africa","36.60637","3.08783"
"Sidi Okba",,Algeria,,DZ,DZA,"Northern Africa","34.74512","5.89833"
"Sidi Senoussi sydy snwsy",,Algeria,,DZ,DZA,"Northern Africa","34.99691","-1.09449"
"Sidi ech Chahmi",,Algeria,,DZ,DZA,"Northern Africa","35.65903","-0.52168"
Sig,,Algeria,,DZ,DZA,"Northern Africa","35.52832","-0.19369"
Skikda,,Algeria,,DZ,DZA,"Northern Africa","36.87617","6.90921"
Sougueur,,Algeria,,DZ,DZA,"Northern Africa","35.18568","1.49612"
"Souk Ahras",,Algeria,,DZ,DZA,"Northern Africa","36.28639","7.95111"
Souma,,Algeria,,DZ,DZA,"Northern Africa","36.51833","2.90528"
"Sour el Ghozlane",,Algeria,,DZ,DZA,"Northern Africa","36.14766","3.69123"
Tadmait,,Algeria,,DZ,DZA,"Northern Africa","36.74413","3.90045"
Tamalous,,Algeria,,DZ,DZA,"Northern Africa","36.83763","6.64018"
Tamanrasset,,Algeria,,DZ,DZA,"Northern Africa","22.785","5.52278"
"Tazoult-Lambese",,Algeria,,DZ,DZA,"Northern Africa","35.48171","6.26074"
Tebesbest,,Algeria,,DZ,DZA,"Northern Africa","33.11667","6.08333"
Tebessa,,Algeria,,DZ,DZA,"Northern Africa","35.40417","8.12417"
Telerghma,,Algeria,,DZ,DZA,"Northern Africa","36.11653","6.35434"
Thenia,,Algeria,,DZ,DZA,"Northern Africa","36.72544","3.55665"
"Theniet el Had",,Algeria,,DZ,DZA,"Northern Africa","35.87111","2.02806"
Tiarat,,Algeria,,DZ,DZA,"Northern Africa","35.38043601","1.319960489"
Tiaret,,Algeria,,DZ,DZA,"Northern Africa","35.37103","1.31699"
Timimoun,,Algeria,,DZ,DZA,"Northern Africa","29.26388","0.23098"
Timizart,,Algeria,,DZ,DZA,"Northern Africa","36.8","4.26667"
Tindouf,,Algeria,,DZ,DZA,"Northern Africa","27.67111","-8.14743"
Tipasa,,Algeria,,DZ,DZA,"Northern Africa","36.58972","2.4475"
Tirmitine,,Algeria,,DZ,DZA,"Northern Africa","36.65393","3.98143"
Tissemsilt,,Algeria,,DZ,DZA,"Northern Africa","35.60722","1.81081"
"Tizi Gheniff",,Algeria,,DZ,DZA,"Northern Africa","36.58839","3.77445"
"Tizi Ouzou",,Algeria,,DZ,DZA,"Northern Africa","36.71182","4.04591"
"Tizi Rached",,Algeria,,DZ,DZA,"Northern Africa","36.67176","4.19176"
"Tizi-Ouzou",,Algeria,,DZ,DZA,"Northern Africa","36.80000111","4.033332556"
"Tizi-n-Tleta",,Algeria,,DZ,DZA,"Northern Africa","36.54569","4.05712"
Tlemcen,,Algeria,,DZ,DZA,"Northern Africa","34.87833","-1.315"
Tlimcen,,Algeria,,DZ,DZA,"Northern Africa","34.89041424","-1.32000757"
Tolga,,Algeria,,DZ,DZA,"Northern Africa","34.72224","5.37845"
Touggourt,,Algeria,,DZ,DZA,"Northern Africa","33.10527","6.05796"
Zemoura,,Algeria,,DZ,DZA,"Northern Africa","35.72251","0.75509"
Zeralda,,Algeria,,DZ,DZA,"Northern Africa","36.71169","2.84244"
"Zeribet el Oued",,Algeria,,DZ,DZA,"Northern Africa","34.68284","6.51109"
"el hed",,Algeria,,DZ,DZA,"Northern Africa","36.65","4.77361"
"Andorra la Vella",,Andorra,,AD,AND,"Southern Europe","42.50779","1.52109"
Canillo,,Andorra,,AD,AND,"Southern Europe","42.5676","1.59756"
Encamp,,Andorra,,AD,AND,"Southern Europe","42.53474","1.58014"
Ordino,,Andorra,,AD,AND,"Southern Europe","42.55623","1.53319"
"Pas de la Casa",,Andorra,,AD,AND,"Southern Europe","42.5427734","1.7336082"
"Sant Julia de Loria",,Andorra,,AD,AND,"Southern Europe","42.46372","1.49129"
"la Massana",,Andorra,,AD,AND,"Southern Europe","42.54499","1.51483"
"les Escaldes",,Andorra,,AD,AND,"Southern Europe","42.50729","1.53414"
Ambriz,,Angola,,AO,AGO,"Middle Africa","-7.85498696","13.12502803"
Benguela,,Angola,,AO,AGO,"Middle Africa","-12.57626","13.40547"
Caala,,Angola,,AO,AGO,"Middle Africa","-12.8525","15.56056"
Cabinda,,Angola,,AO,AGO,"Middle Africa","-5.55","12.2"
Cacolo,,Angola,,AO,AGO,"Middle Africa","-10.14962726","19.2600024"
Caconda,,Angola,,AO,AGO,"Middle Africa","-13.73333","15.06667"
Calucinga,,Angola,,AO,AGO,"Middle Africa","-11.31958169","16.19998246"
Calulo,,Angola,,AO,AGO,"Middle Africa","-9.999610577","14.90001013"
Caluquembe,,Angola,,AO,AGO,"Middle Africa","-13.78333","14.68333"
Camabatela,,Angola,,AO,AGO,"Middle Africa","-8.18812","15.37495"
Camacupa,,Angola,,AO,AGO,"Middle Africa","-12.01667","17.48333"
Cangamba,,Angola,,AO,AGO,"Middle Africa","-13.69959145","19.86001745"
"Capenda-Camulemba",,Angola,,AO,AGO,"Middle Africa","-9.4195943","18.43002722"
Catabola,,Angola,,AO,AGO,"Middle Africa","-12.15","17.28333"
Catumbela,,Angola,,AO,AGO,"Middle Africa","-12.43002","13.54677"
Caxito,,Angola,,AO,AGO,"Middle Africa","-8.57848","13.66425"
Cazage,,Angola,,AO,AGO,"Middle Africa","-11.0666667","20.7000008"
Cazombo,,Angola,,AO,AGO,"Middle Africa","-11.88957273","22.90003861"
Chela,,Angola,,AO,AGO,"Middle Africa","-12.30261","15.43358"
Chibemba,,Angola,,AO,AGO,"Middle Africa","-15.74959552","14.0800085"
Chibia,,Angola,,AO,AGO,"Middle Africa","-15.1896297","13.69000647"
Chissamba,,Angola,,AO,AGO,"Middle Africa","-12.16667","17.33333"
Chitado,,Angola,,AO,AGO,"Middle Africa","-17.31962889","13.92001827"
Cubal,,Angola,,AO,AGO,"Middle Africa","-13.03958006","14.23999874"
Cuito,,Angola,,AO,AGO,"Middle Africa","-12.38333","16.93333"
"Cuito Caunavale",,Angola,,AO,AGO,"Middle Africa","-15.15960569","19.16998205"
Dundo,,Angola,,AO,AGO,"Middle Africa","-7.380028871","20.82998409"
Huambo,,Angola,,AO,AGO,"Middle Africa","-12.77611","15.73917"
Leua,,Angola,,AO,AGO,"Middle Africa","-11.65","20.45"
Lobito,,Angola,,AO,AGO,"Middle Africa","-12.3644","13.53601"
Longonjo,,Angola,,AO,AGO,"Middle Africa","-12.90667","15.25333"
Luanda,,Angola,,AO,AGO,"Middle Africa","-8.83682","13.23432"
Luau,,Angola,,AO,AGO,"Middle Africa","-10.70727","22.22466"
Lubango,,Angola,,AO,AGO,"Middle Africa","-14.91717","13.4925"
Lucapa,,Angola,,AO,AGO,"Middle Africa","-8.41915","20.74466"
Luena,,Angola,,AO,AGO,"Middle Africa","-11.78333","19.91667"
Luiana,,Angola,,AO,AGO,"Middle Africa","-17.36954832","22.99998083"
"Lumbala Nguimbo",,Angola,,AO,AGO,"Middle Africa","-14.09961871","21.44002437"
Lumeje,,Angola,,AO,AGO,"Middle Africa","-11.55","20.7833328"
Malanje,,Angola,,AO,AGO,"Middle Africa","-9.54015","16.34096"
Mavinga,,Angola,,AO,AGO,"Middle Africa","-15.7895414","20.36003861"
"Mbanza Congo",,Angola,,AO,AGO,"Middle Africa","-6.26703","14.2401"
"Mbanza-Congo",,Angola,,AO,AGO,"Middle Africa","-6.269605694","14.23999874"
Menongue,,Angola,,AO,AGO,"Middle Africa","-14.6585","17.69099"
Muconda,,Angola,,AO,AGO,"Middle Africa","-10.59962563","21.31998002"
Mucusso,,Angola,,AO,AGO,"Middle Africa","-18.01953449","21.42999914"
Namibe,,Angola,,AO,AGO,"Middle Africa","-15.19611","12.15222"
Ndalatando,,Angola,,AO,AGO,"Middle Africa","-9.29782","14.91162"
Nzeto,,Angola,,AO,AGO,"Middle Africa","-7.23116","12.8666"
Ondjiva,,Angola,,AO,AGO,"Middle Africa","-17.06667","15.73333"
Quibala,,Angola,,AO,AGO,"Middle Africa","-10.73366","14.97995"
Quipungo,,Angola,,AO,AGO,"Middle Africa","-14.82954832","14.55000565"
Saurimo,,Angola,,AO,AGO,"Middle Africa","-9.66078","20.39155"
Soio,,Angola,,AO,AGO,"Middle Africa","-6.1349","12.36894"
Songo,,Angola,,AO,AGO,"Middle Africa","-7.349591452","14.84998734"
Sumbe,,Angola,,AO,AGO,"Middle Africa","-11.20605","13.84371"
Tombua,,Angola,,AO,AGO,"Middle Africa","-15.80003172","11.85998897"
"Uacu Cungo",,Angola,,AO,AGO,"Middle Africa","-11.35669","15.11719"
Uige,,Angola,,AO,AGO,"Middle Africa","-7.60874","15.06131"
Xangongo,,Angola,,AO,AGO,"Middle Africa","-16.74002602","14.96998002"
"Blowing Point Village",,Anguilla,,AI,AIA,Caribbean,"18.17648","-63.09375"
"East End Village",,Anguilla,,AI,AIA,Caribbean,"18.23333","-63"
Farrington,,Anguilla,,AI,AIA,Caribbean,"18.215","-63.02238"
"George Hill",,Anguilla,,AI,AIA,Caribbean,"18.19939","-63.0665"
"Island Harbour",,Anguilla,,AI,AIA,Caribbean,"18.25601","-63.0102"
"North Hill Village",,Anguilla,,AI,AIA,Caribbean,"18.20542","-63.07847"
"North Side",,Anguilla,,AI,AIA,Caribbean,"18.22919","-63.04401"
"Sandy Ground Village",,Anguilla,,AI,AIA,Caribbean,"18.20118","-63.08998"
"Sandy Hill",,Anguilla,,AI,AIA,Caribbean,"18.22104","-63.01329"
"South Hill Village",,Anguilla,,AI,AIA,Caribbean,"18.19201","-63.08779"
"Stoney Ground",,Anguilla,,AI,AIA,Caribbean,"18.22026","-63.04607"
"The Quarter",,Anguilla,,AI,AIA,Caribbean,"18.20799","-63.04178"
"The Valley",,Anguilla,,AI,AIA,Caribbean,"18.21704","-63.05783"
"West End Village",,Anguilla,,AI,AIA,Caribbean,"18.17191","-63.14941"
Bolands,,"Antigua and Barbuda",,AG,ATG,Caribbean,"17.06565","-61.87466"
Codrington,,"Antigua and Barbuda",,AG,ATG,Caribbean,"17.63333","-61.83333"
Falmouth,,"Antigua and Barbuda",,AG,ATG,Caribbean,"17.02741","-61.78136"
Parham,,"Antigua and Barbuda",,AG,ATG,Caribbean,"17.09682","-61.77046"
Piggotts,,"Antigua and Barbuda",,AG,ATG,Caribbean,"17.11667","-61.8"
"Saint Johns",,"Antigua and Barbuda",,AG,ATG,Caribbean,"17.12096","-61.84329"
"Abra Pampa",,Argentina,,AR,ARG,"South America","-22.72049","-65.69697"
"Adelia Maria",,Argentina,,AR,ARG,"South America","-33.63152","-64.02097"
Adrogue,,Argentina,,AR,ARG,"South America","-34.80041","-58.38384"
Aguilares,,Argentina,,AR,ARG,"South America","-27.4338","-65.61427"
"Alba Posse",,Argentina,,AR,ARG,"South America","-27.56978","-54.68262"
Albardon,,Argentina,,AR,ARG,"South America","-31.43722","-68.52556"
Alderetes,,Argentina,,AR,ARG,"South America","-26.81667","-65.13333"
Allen,,Argentina,,AR,ARG,"South America","-38.97736","-67.82714"
Almafuerte,,Argentina,,AR,ARG,"South America","-32.19296","-64.25559"
"Alta Gracia",,Argentina,,AR,ARG,"South America","-31.65292","-64.42826"
"Alto Rio Sanguer",,Argentina,,AR,ARG,"South America","-45.03328611","-70.83328394"
Alvear,,Argentina,,AR,ARG,"South America","-29.09683","-56.55043"
Anatuya,,Argentina,,AR,ARG,"South America","-28.46064","-62.83472"
Andalgala,,Argentina,,AR,ARG,"South America","-27.60012","-66.31794"
"Apolinario Saravia",,Argentina,,AR,ARG,"South America","-24.43276","-63.99535"
Arauco,,Argentina,,AR,ARG,"South America","-28.5805","-66.79438"
Arias,,Argentina,,AR,ARG,"South America","-33.64411","-62.40272"
"Aristobulo del Valle",,Argentina,,AR,ARG,"South America","-27.09625","-54.89626"
Armstrong,,Argentina,,AR,ARG,"South America","-32.78215","-61.60222"
Arroyito,,Argentina,,AR,ARG,"South America","-31.42022","-63.05002"
"Arroyo Seco",,Argentina,,AR,ARG,"South America","-33.15489","-60.50863"
Avellaneda,,Argentina,,AR,ARG,"South America","-29.11761","-59.65834"
"Avia Terai",,Argentina,,AR,ARG,"South America","-26.68532","-60.7292"
Azul,,Argentina,,AR,ARG,"South America","-36.77698","-59.85854"
"Bahia Blanca",,Argentina,,AR,ARG,"South America","-38.71959","-62.27243"
Balcarce,,Argentina,,AR,ARG,"South America","-37.83331216","-58.24999516"
Balnearia,,Argentina,,AR,ARG,"South America","-31.0088","-62.66733"
Balvanera,,Argentina,,AR,ARG,"South America","-34.61032","-58.39766"
Barracas,,Argentina,,AR,ARG,"South America","-34.64966","-58.38341"
Barranqueras,,Argentina,,AR,ARG,"South America","-27.48132","-58.93925"
Belgrano,,Argentina,,AR,ARG,"South America","-34.5627","-58.45829"
"Bell Ville",,Argentina,,AR,ARG,"South America","-32.62591","-62.68873"
"Bella Vista",,Argentina,,AR,ARG,"South America","-27.03424","-65.30196"
Beltran,,Argentina,,AR,ARG,"South America","-27.82913","-64.06098"
Berazategui,,Argentina,,AR,ARG,"South America","-34.76531","-58.21278"
"Bernardo de Irigoyen",,Argentina,,AR,ARG,"South America","-26.2552","-53.64581"
Berrotaran,,Argentina,,AR,ARG,"South America","-32.451","-64.38867"
Boedo,,Argentina,,AR,ARG,"South America","-34.63333","-58.41667"
Bovril,,Argentina,,AR,ARG,"South America","-31.34311","-59.44512"
Brinkmann,,Argentina,,AR,ARG,"South America","-30.86589","-62.03742"
"Buenos Aires",,Argentina,,AR,ARG,"South America","-34.61315","-58.37723"
Cafayate,,Argentina,,AR,ARG,"South America","-26.07286","-65.97766"
Caimancito,,Argentina,,AR,ARG,"South America","-23.74069","-64.5937"
Calchaqui,,Argentina,,AR,ARG,"South America","-29.88767","-60.28697"
"Caleta Olivia",,Argentina,,AR,ARG,"South America","-46.43929","-67.52814"
Calilegua,,Argentina,,AR,ARG,"South America","-23.77368","-64.77002"
Calingasta,,Argentina,,AR,ARG,"South America","-31.33394","-69.4208"
Campana,,Argentina,,AR,ARG,"South America","-34.16874","-58.95914"
"Campo Gallo",,Argentina,,AR,ARG,"South America","-26.58333","-62.85"
"Campo Grande",,Argentina,,AR,ARG,"South America","-27.2077","-54.97977"
"Campo Largo",,Argentina,,AR,ARG,"South America","-26.80077","-60.84215"
"Campo Quijano",,Argentina,,AR,ARG,"South America","-24.9166667","-65.6500015"
"Campo Ramon",,Argentina,,AR,ARG,"South America","-27.46108","-55.01901"
"Campo Viera",,Argentina,,AR,ARG,"South America","-27.38333","-55.03333"
"Canada de Gomez",,Argentina,,AR,ARG,"South America","-32.81636","-61.39493"
Canals,,Argentina,,AR,ARG,"South America","-33.56542","-62.88927"
Candelaria,,Argentina,,AR,ARG,"South America","-27.4595","-55.74536"
Capayan,,Argentina,,AR,ARG,"South America","-28.76105","-66.05025"
"Capilla del Monte",,Argentina,,AR,ARG,"South America","-30.86088","-64.52515"
Capiovi,,Argentina,,AR,ARG,"South America","-26.92998","-55.06084"
"Capitan Bermudez",,Argentina,,AR,ARG,"South America","-32.82262","-60.71852"
Carcarana,,Argentina,,AR,ARG,"South America","-32.85679","-61.15331"
Carhue,,Argentina,,AR,ARG,"South America","-37.1828609","-62.73331323"
Casilda,,Argentina,,AR,ARG,"South America","-33.04417","-61.16806"
Castelli,,Argentina,,AR,ARG,"South America","-25.94679","-60.61947"
Catamarca,,Argentina,,AR,ARG,"South America","-28.47000771","-65.78000065"
Catriel,,Argentina,,AR,ARG,"South America","-37.87907","-67.7956"
Caucete,,Argentina,,AR,ARG,"South America","-31.65179","-68.28105"
Centenario,,Argentina,,AR,ARG,"South America","-38.82955","-68.1318"
Ceres,,Argentina,,AR,ARG,"South America","-29.881","-61.94504"
Cerrillos,,Argentina,,AR,ARG,"South America","-24.89963133","-65.48330042"
"Cerro Azul",,Argentina,,AR,ARG,"South America","-27.6331","-55.4962"
Cervantes,,Argentina,,AR,ARG,"South America","-39.05","-67.38333"
Chacabuco,,Argentina,,AR,ARG,"South America","-34.64167","-60.47389"
Chajari,,Argentina,,AR,ARG,"South America","-30.75048","-57.97962"
Chamical,,Argentina,,AR,ARG,"South America","-30.36002","-66.31399"
"Chanar Ladeado",,Argentina,,AR,ARG,"South America","-33.32524","-62.03831"
Charata,,Argentina,,AR,ARG,"South America","-27.21438","-61.18795"
Chascomus,,Argentina,,AR,ARG,"South America","-35.56621539","-58.01662439"
Chepes,,Argentina,,AR,ARG,"South America","-31.34998696","-66.5999506"
Chicoana,,Argentina,,AR,ARG,"South America","-25.10088","-65.5331"
Chilecito,,Argentina,,AR,ARG,"South America","-29.16195","-67.4974"
Chimbas,,Argentina,,AR,ARG,"South America","-31.48333","-68.53333"
Chivilcoy,,Argentina,,AR,ARG,"South America","-34.89566","-60.01667"
"Choele Choel",,Argentina,,AR,ARG,"South America","-39.26667","-65.68333"
"Chos Malal",,Argentina,,AR,ARG,"South America","-37.37809","-70.27085"
Chumbicha,,Argentina,,AR,ARG,"South America","-28.86662433","-66.23330632"
"Cinco Saltos",,Argentina,,AR,ARG,"South America","-38.82225","-68.06293"
Cipolletti,,Argentina,,AR,ARG,"South America","-38.93392","-67.99032"
Clodomira,,Argentina,,AR,ARG,"South America","-27.5744","-64.13108"
Clorinda,,Argentina,,AR,ARG,"South America","-25.28481","-57.71851"
Colegiales,,Argentina,,AR,ARG,"South America","-34.57365","-58.44924"
"Colonia Aurora",,Argentina,,AR,ARG,"South America","-27.47428","-54.52498"
"Colonia Wanda",,Argentina,,AR,ARG,"South America","-25.97408","-54.42806"
Comallo,,Argentina,,AR,ARG,"South America","-41.03332355","-70.26657434"
"Comandante Fontana",,Argentina,,AR,ARG,"South America","-25.33453","-59.68212"
"Comodoro Rivadavia",,Argentina,,AR,ARG,"South America","-45.86413","-67.49656"
"Comondante Luis Piedrabuena",,Argentina,,AR,ARG,"South America","-49.97454865","-68.90347273"
"Concepcion de la Sierra",,Argentina,,AR,ARG,"South America","-27.98311","-55.52031"
"Concepcion del Bermejo",,Argentina,,AR,ARG,"South America","-26.59926","-60.94617"
"Concepcion del Uruguay",,Argentina,,AR,ARG,"South America","-32.48249","-58.23722"
Concordia,,Argentina,,AR,ARG,"South America","-31.39296","-58.02089"
Cordoba,,Argentina,,AR,ARG,"South America","-31.4135","-64.18105"
Coronda,,Argentina,,AR,ARG,"South America","-31.97263","-60.91983"
"Coronel Dorrego",,Argentina,,AR,ARG,"South America","-38.71867","-61.28733"
"Coronel Du Graty",,Argentina,,AR,ARG,"South America","-27.68038","-60.91462"
"Coronel Moldes",,Argentina,,AR,ARG,"South America","-33.6227","-64.59711"
"Coronel Suarez",,Argentina,,AR,ARG,"South America","-37.45467","-61.93343"
"Corral de Bustos",,Argentina,,AR,ARG,"South America","-33.28205","-62.18463"
Corrientes,,Argentina,,AR,ARG,"South America","-27.4806","-58.8341"
Corzuela,,Argentina,,AR,ARG,"South America","-26.95374","-60.96928"
Cosquin,,Argentina,,AR,ARG,"South America","-31.24508","-64.46563"
Crespo,,Argentina,,AR,ARG,"South America","-32.02873","-60.30658"
"Cruz Alta",,Argentina,,AR,ARG,"South America","-33.00887","-61.80746"
"Cruz del Eje",,Argentina,,AR,ARG,"South America","-30.72644","-64.80387"
"Curuzu Cuatia",,Argentina,,AR,ARG,"South America","-29.79171","-58.0546"
"Cutral Co",,Argentina,,AR,ARG,"South America","-38.94001463","-69.24002202"
"Cutral-Co",,Argentina,,AR,ARG,"South America","-38.93424","-69.23052"
Darregueira,,Argentina,,AR,ARG,"South America","-37.69957355","-63.16659428"
"Dean Funes",,Argentina,,AR,ARG,"South America","-30.42036","-64.34984"
Despenaderos,,Argentina,,AR,ARG,"South America","-31.81626","-64.28989"
Devoto,,Argentina,,AR,ARG,"South America","-31.40431","-62.30634"
Diamante,,Argentina,,AR,ARG,"South America","-32.06641","-60.63837"
"Doctor Pedro P. Pena",,Argentina,,AR,ARG,"South America","-22.47998574","-62.29998051"
Dolores,,Argentina,,AR,ARG,"South America","-36.31321","-57.67918"
"Dos de Mayo",,Argentina,,AR,ARG,"South America","-27.02277","-54.68669"
"Eduardo Castex",,Argentina,,AR,ARG,"South America","-35.91501","-64.29448"
"El Alcazar",,Argentina,,AR,ARG,"South America","-26.71459","-54.81523"
"El Bolson",,Argentina,,AR,ARG,"South America","-41.96051","-71.53336"
"El Calafate",,Argentina,,AR,ARG,"South America","-50.34075","-72.27682"
"El Carril",,Argentina,,AR,ARG,"South America","-25.0741","-65.49174"
"El Colorado",,Argentina,,AR,ARG,"South America","-26.30808","-59.37291"
"El Galpon",,Argentina,,AR,ARG,"South America","-25.38069","-64.65259"
"El Maiten",,Argentina,,AR,ARG,"South America","-42.05000568","-71.16662276"
"El Quebrachal",,Argentina,,AR,ARG,"South America","-25.28333","-64.06667"
"El Soberbio",,Argentina,,AR,ARG,"South America","-27.29847","-54.19877"
"El Trebol",,Argentina,,AR,ARG,"South America","-32.2008","-61.7014"
Embalse,,Argentina,,AR,ARG,"South America","-32.18","-64.41809"
Embarcacion,,Argentina,,AR,ARG,"South America","-23.21003","-64.09965"
Esperanza,,Argentina,,AR,ARG,"South America","-31.4488","-60.93173"
Esquel,,Argentina,,AR,ARG,"South America","-42.91147","-71.31947"
Esquina,,Argentina,,AR,ARG,"South America","-30.01444","-59.52719"
Famailla,,Argentina,,AR,ARG,"South America","-27.05413","-65.40329"
Federacion,,Argentina,,AR,ARG,"South America","-31.00621","-57.89962"
Federal,,Argentina,,AR,ARG,"South America","-30.95465","-58.78326"
Fiambala,,Argentina,,AR,ARG,"South America","-27.68705","-67.6149"
Firmat,,Argentina,,AR,ARG,"South America","-33.45937","-61.4832"
Fontana,,Argentina,,AR,ARG,"South America","-27.41813","-59.02392"
Formosa,,Argentina,,AR,ARG,"South America","-26.17753","-58.17814"
"Fraile Pintado",,Argentina,,AR,ARG,"South America","-23.94079","-64.79943"
"Fray Luis A. Beltran",,Argentina,,AR,ARG,"South America","-32.79122","-60.72819"
"Fray Luis Beltran",,Argentina,,AR,ARG,"South America","-39.31667","-65.76667"
Frias,,Argentina,,AR,ARG,"South America","-28.64958331","-65.14998743"
Funes,,Argentina,,AR,ARG,"South America","-32.91568","-60.80995"
Gaiman,,Argentina,,AR,ARG,"South America","-43.2897","-65.4929"
Galvez,,Argentina,,AR,ARG,"South America","-32.02927","-61.22103"
Garuhape,,Argentina,,AR,ARG,"South America","-26.81768","-54.95665"
Garupa,,Argentina,,AR,ARG,"South America","-27.48171","-55.82921"
Gastre,,Argentina,,AR,ARG,"South America","-42.28296303","-69.23330408"
"General Acha",,Argentina,,AR,ARG,"South America","-37.37698","-64.60431"
"General Cabrera",,Argentina,,AR,ARG,"South America","-32.81313","-63.87243"
"General Conesa",,Argentina,,AR,ARG,"South America","-40.1","-64.43333"
"General Enrique Mosconi",,Argentina,,AR,ARG,"South America","-22.59588","-63.81255"
"General Fernandez Oro",,Argentina,,AR,ARG,"South America","-38.95297","-67.92489"
"General Guemes",,Argentina,,AR,ARG,"South America","-24.6666223","-65.04996769"
"General Jose de San Martin",,Argentina,,AR,ARG,"South America","-26.53743","-59.34158"
"General Levalle",,Argentina,,AR,ARG,"South America","-34.01472","-63.92413"
"General Pico",,Argentina,,AR,ARG,"South America","-35.65662","-63.75682"
"General Pinedo",,Argentina,,AR,ARG,"South America","-27.31667","-61.28333"
"General Ramirez",,Argentina,,AR,ARG,"South America","-32.17601","-60.20079"
"General Roca",,Argentina,,AR,ARG,"South America","-39.03333","-67.58333"
"General Villegas",,Argentina,,AR,ARG,"South America","-35.03285","-63.01252"
"Gobernador Galvez",,Argentina,,AR,ARG,"South America","-33.03016","-60.64045"
"Gobernador Gregores",,Argentina,,AR,ARG,"South America","-48.76659829","-70.25001205"
"Gobernador Ingeniero Valentin Virasoro",,Argentina,,AR,ARG,"South America","-28.05","-56.03333"
"Gobernador Roca",,Argentina,,AR,ARG,"South America","-27.18636","-55.46433"
Goya,,Argentina,,AR,ARG,"South America","-29.14395","-59.2651"
"Granadero Baigorria",,Argentina,,AR,ARG,"South America","-32.85683","-60.71754"
Graneros,,Argentina,,AR,ARG,"South America","-27.64934","-65.4383"
Gualeguay,,Argentina,,AR,ARG,"South America","-33.14156","-59.30966"
Gualeguaychu,,Argentina,,AR,ARG,"South America","-33.00937","-58.51722"
Guatrache,,Argentina,,AR,ARG,"South America","-37.66776","-63.53021"
"Hermoso Campo",,Argentina,,AR,ARG,"South America","-27.60816","-61.34441"
Hernando,,Argentina,,AR,ARG,"South America","-32.42657","-63.73333"
"Huerta Grande",,Argentina,,AR,ARG,"South America","-31.07524","-64.49063"
Huillapima,,Argentina,,AR,ARG,"South America","-28.72533","-65.9787"
"Huinca Renanco",,Argentina,,AR,ARG,"South America","-34.84038","-64.3758"
Humahuaca,,Argentina,,AR,ARG,"South America","-23.20544","-65.35048"
Ibarreta,,Argentina,,AR,ARG,"South America","-25.21438","-59.85851"
Icano,,Argentina,,AR,ARG,"South America","-28.91934","-65.32817"
"Ingeniero Guillermo N. Juarez",,Argentina,,AR,ARG,"South America","-23.9","-61.85"
"Ingeniero Jacobacci",,Argentina,,AR,ARG,"South America","-41.3292","-69.55015"
"Ingeniero Luis A. Huergo",,Argentina,,AR,ARG,"South America","-39.08333","-67.23333"
"Ingenio La Esperanza",,Argentina,,AR,ARG,"South America","-24.22554","-64.83896"
"Intendente Alvear",,Argentina,,AR,ARG,"South America","-35.23383","-63.59205"
Itati,,Argentina,,AR,ARG,"South America","-27.27043","-58.24458"
"Jardin America",,Argentina,,AR,ARG,"South America","-27.04346","-55.22698"
"Jesus Maria",,Argentina,,AR,ARG,"South America","-30.98153","-64.09424"
"Joaquin V. Gonzalez",,Argentina,,AR,ARG,"South America","-25.08333","-64.18333"
"Juan Jose Castelli",,Argentina,,AR,ARG,"South America","-25.9495414","-60.61664657"
Junin,,Argentina,,AR,ARG,"South America","-34.58382","-60.94332"
"Junin de los Andes",,Argentina,,AR,ARG,"South America","-39.95043","-71.06936"
"Justiniano Posse",,Argentina,,AR,ARG,"South America","-32.88411","-62.67788"
"Justo Daract",,Argentina,,AR,ARG,"South America","-33.8594","-65.18277"
"La Calera",,Argentina,,AR,ARG,"South America","-31.34377","-64.33529"
"La Carlota",,Argentina,,AR,ARG,"South America","-33.41993","-63.29769"
"La Cocha",,Argentina,,AR,ARG,"South America","-27.77729","-65.57035"
"La Cruz",,Argentina,,AR,ARG,"South America","-29.17443","-56.64326"
"La Cumbre",,Argentina,,AR,ARG,"South America","-30.98201","-64.49139"
"La Falda",,Argentina,,AR,ARG,"South America","-31.08841","-64.48987"
"La Leonesa",,Argentina,,AR,ARG,"South America","-27.03786","-58.70347"
"La Paz",,Argentina,,AR,ARG,"South America","-30.74485","-59.64566"
"La Plata",,Argentina,,AR,ARG,"South America","-34.92145","-57.95453"
"La Punta",,Argentina,,AR,ARG,"South America","-33.18368","-66.3127"
"La Quiaca",,Argentina,,AR,ARG,"South America","-22.10236","-65.59299"
"La Rioja",,Argentina,,AR,ARG,"South America","-29.41105","-66.85067"
"La Toma",,Argentina,,AR,ARG,"South America","-33.05258","-65.62385"
Laborde,,Argentina,,AR,ARG,"South America","-33.15319","-62.85661"
Laboulaye,,Argentina,,AR,ARG,"South America","-34.12662","-63.39119"
"Laguna Larga",,Argentina,,AR,ARG,"South America","-31.77652","-63.80104"
"Laguna Paiva",,Argentina,,AR,ARG,"South America","-31.30391","-60.65894"
Lamarque,,Argentina,,AR,ARG,"South America","-39.42304","-65.70208"
Larroque,,Argentina,,AR,ARG,"South America","-33.03595","-59.00125"
"Las Brenas",,Argentina,,AR,ARG,"South America","-27.08966","-61.08161"
"Las Heras",,Argentina,,AR,ARG,"South America","-46.54186","-68.93593"
"Las Higueras",,Argentina,,AR,ARG,"South America","-33.09231","-64.28899"
"Las Lajas",,Argentina,,AR,ARG,"South America","-38.51626788","-70.36659408"
"Las Lajitas",,Argentina,,AR,ARG,"South America","-24.68333","-64.25"
"Las Lomitas",,Argentina,,AR,ARG,"South America","-24.70955","-60.59303"
"Las Parejas",,Argentina,,AR,ARG,"South America","-32.68478","-61.51637"
"Las Plumas",,Argentina,,AR,ARG,"South America","-43.41627887","-67.24998845"
"Las Rosas",,Argentina,,AR,ARG,"South America","-32.47661","-61.58041"
"Las Toscas",,Argentina,,AR,ARG,"South America","-28.3529","-59.25795"
"Las Varillas",,Argentina,,AR,ARG,"South America","-31.87208","-62.71946"
Leones,,Argentina,,AR,ARG,"South America","-32.66174","-62.29678"
"Libertador General San Martin",,Argentina,,AR,ARG,"South America","-23.80644","-64.78757"
Lincoln,,Argentina,,AR,ARG,"South America","-34.86649","-61.5302"
Lobos,,Argentina,,AR,ARG,"South America","-35.184895","-59.09467228"
"Los Altos",,Argentina,,AR,ARG,"South America","-28.04845","-65.49945"
"Los Blancos",,Argentina,,AR,ARG,"South America","-23.59960732","-62.60003972"
"Los Frentones",,Argentina,,AR,ARG,"South America","-26.4077","-61.41367"
Lujan,,Argentina,,AR,ARG,"South America","-34.57028","-59.105"
Machagai,,Argentina,,AR,ARG,"South America","-26.92614","-60.04955"
Macia,,Argentina,,AR,ARG,"South America","-32.1722","-59.39947"
Malabrigo,,Argentina,,AR,ARG,"South America","-29.34636","-59.96957"
Malagueno,,Argentina,,AR,ARG,"South America","-31.46467","-64.3584"
Malargue,,Argentina,,AR,ARG,"South America","-35.46611815","-69.58330855"
"Malvinas Argentinas",,Argentina,,AR,ARG,"South America","-31.38333","-64.06667"
"Mar de Ajo",,Argentina,,AR,ARG,"South America","-36.71622272","-56.67660283"
"Mar del Plata",,Argentina,,AR,ARG,"South America","-38.00228","-57.55754"
"Marcos Juarez",,Argentina,,AR,ARG,"South America","-32.6978","-62.10672"
"Margarita Belen",,Argentina,,AR,ARG,"South America","-27.2616","-58.97219"
Mburucuya,,Argentina,,AR,ARG,"South America","-28.04532","-58.22835"
Mendoza,,Argentina,,AR,ARG,"South America","-32.89084","-68.82717"
Mercedes,,Argentina,,AR,ARG,"South America","-34.65145","-59.43068"
Merlo,,Argentina,,AR,ARG,"South America","-32.34288","-65.01396"
"Mina Clavero",,Argentina,,AR,ARG,"South America","-31.72101","-65.00619"
Mocoreta,,Argentina,,AR,ARG,"South America","-30.61891","-57.96344"
"Monte Buey",,Argentina,,AR,ARG,"South America","-32.91642","-62.45669"
"Monte Caseros",,Argentina,,AR,ARG,"South America","-30.25359","-57.63626"
"Monte Cristo",,Argentina,,AR,ARG,"South America","-31.34312","-63.94437"
"Monte Maiz",,Argentina,,AR,ARG,"South America","-33.20462","-62.60085"
"Monte Quemado",,Argentina,,AR,ARG,"South America","-25.79962807","-62.86658675"
Montecarlo,,Argentina,,AR,ARG,"South America","-26.5662","-54.757"
Monteros,,Argentina,,AR,ARG,"South America","-27.16741","-65.49832"
Moron,,Argentina,,AR,ARG,"South America","-34.6509","-58.61956"
Morteros,,Argentina,,AR,ARG,"South America","-30.71164","-61.99862"
Necochea,,Argentina,,AR,ARG,"South America","-38.5545","-58.73961"
Neuquen,,Argentina,,AR,ARG,"South America","-38.95161","-68.0591"
"Nuestra Senora del Rosario de Caa Cati",,Argentina,,AR,ARG,"South America","-27.75072","-57.62073"
"Nueve de Julio",,Argentina,,AR,ARG,"South America","-35.44437","-60.88313"
Obera,,Argentina,,AR,ARG,"South America","-27.48706","-55.11994"
Olavarria,,Argentina,,AR,ARG,"South America","-36.89272","-60.32254"
Oliva,,Argentina,,AR,ARG,"South America","-32.04158","-63.56978"
Oncativo,,Argentina,,AR,ARG,"South America","-31.91353","-63.68201"
"Palma Sola",,Argentina,,AR,ARG,"South America","-23.96336","-64.29872"
"Palo Santo",,Argentina,,AR,ARG,"South America","-25.56332","-59.33781"
Palpala,,Argentina,,AR,ARG,"South America","-24.25647","-65.21163"
"Pampa del Indio",,Argentina,,AR,ARG,"South America","-26.06468","-59.91898"
"Pampa del Infierno",,Argentina,,AR,ARG,"South America","-26.50517","-61.17436"
Panambi,,Argentina,,AR,ARG,"South America","-27.72369","-54.91515"
Parana,,Argentina,,AR,ARG,"South America","-31.73197","-60.5238"
"Paso Rio Mayo",,Argentina,,AR,ARG,"South America","-45.68337563","-70.26657434"
"Paso de la Patria",,Argentina,,AR,ARG,"South America","-27.31676","-58.57197"
"Paso de los Libres",,Argentina,,AR,ARG,"South America","-29.71251","-57.08771"
"Pedro Luro",,Argentina,,AR,ARG,"South America","-39.48334064","-62.68331629"
Perez,,Argentina,,AR,ARG,"South America","-32.99835","-60.76791"
Pergamino,,Argentina,,AR,ARG,"South America","-33.88995","-60.57357"
"Perito Moreno",,Argentina,,AR,ARG,"South America","-46.60001219","-70.93335535"
Perugorria,,Argentina,,AR,ARG,"South America","-29.34132","-58.61059"
"Pico Truncado",,Argentina,,AR,ARG,"South America","-46.7949","-67.95731"
Pilar,,Argentina,,AR,ARG,"South America","-34.45866","-58.9142"
Pirane,,Argentina,,AR,ARG,"South America","-25.73239","-59.10879"
"Plaza Huincul",,Argentina,,AR,ARG,"South America","-38.92598","-69.20863"
Plottier,,Argentina,,AR,ARG,"South America","-38.96667","-68.23333"
Pocito,,Argentina,,AR,ARG,"South America","-31.68333","-68.58333"
Pontevedra,,Argentina,,AR,ARG,"South America","-34.74785","-58.70072"
Posadas,,Argentina,,AR,ARG,"South America","-27.36708","-55.89608"
"Pozo del Molle",,Argentina,,AR,ARG,"South America","-32.0186","-62.91984"
"Presidencia Roque Saenz Pena",,Argentina,,AR,ARG,"South America","-26.78522","-60.43876"
"Presidencia de la Plaza",,Argentina,,AR,ARG,"South America","-27.00147","-59.84243"
"Puerto Deseado",,Argentina,,AR,ARG,"South America","-47.75034","-65.89382"
"Puerto Eldorado",,Argentina,,AR,ARG,"South America","-26.40843","-54.69463"
"Puerto Esperanza",,Argentina,,AR,ARG,"South America","-26.01517","-54.67306"
"Puerto Iguazu",,Argentina,,AR,ARG,"South America","-25.59912","-54.57355"
"Puerto Libertad",,Argentina,,AR,ARG,"South America","-25.91641","-54.62089"
"Puerto Madryn",,Argentina,,AR,ARG,"South America","-42.7692","-65.03851"
"Puerto Piray",,Argentina,,AR,ARG,"South America","-26.46779","-54.71476"
"Puerto Rico",,Argentina,,AR,ARG,"South America","-26.79598","-55.02402"
"Puerto San Julian",,Argentina,,AR,ARG,"South America","-49.30000242","-67.71665247"
"Puerto Tirol",,Argentina,,AR,ARG,"South America","-27.37218","-59.08206"
"Puerto Vilelas",,Argentina,,AR,ARG,"South America","-27.51414","-58.93906"
"Punta Alta",,Argentina,,AR,ARG,"South America","-38.87588","-62.07359"
Purmamarca,,Argentina,,AR,ARG,"South America","-23.7333333","-65.4833298"
Quilmes,,Argentina,,AR,ARG,"South America","-34.72904","-58.26374"
Quimili,,Argentina,,AR,ARG,"South America","-27.63333","-62.41667"
Quitilipi,,Argentina,,AR,ARG,"South America","-26.86913","-60.21683"
"Rada Tilly",,Argentina,,AR,ARG,"South America","-45.92462","-67.55424"
Rafaela,,Argentina,,AR,ARG,"South America","-31.25033","-61.4867"
Rawson,,Argentina,,AR,ARG,"South America","-43.30016","-65.10228"
Realico,,Argentina,,AR,ARG,"South America","-35.03658","-64.2447"
Reconquista,,Argentina,,AR,ARG,"South America","-29.15","-59.65"
Recreo,,Argentina,,AR,ARG,"South America","-29.28184","-65.06096"
Resistencia,,Argentina,,AR,ARG,"South America","-27.46056","-58.98389"
Retiro,,Argentina,,AR,ARG,"South America","-34.58333","-58.38333"
"Rio Ceballos",,Argentina,,AR,ARG,"South America","-31.16486","-64.32241"
"Rio Colorado",,Argentina,,AR,ARG,"South America","-38.96657632","-64.08328251"
"Rio Cuarto",,Argentina,,AR,ARG,"South America","-33.13067","-64.34992"
"Rio Gallegos",,Argentina,,AR,ARG,"South America","-51.62261","-69.21813"
"Rio Grande",,Argentina,,AR,ARG,"South America","-53.78769","-67.70946"
"Rio Segundo",,Argentina,,AR,ARG,"South America","-31.6526","-63.9099"
"Rio Tercero",,Argentina,,AR,ARG,"South America","-32.17301","-64.11405"
"Rio Turbio",,Argentina,,AR,ARG,"South America","-51.53587","-72.33673"
Roldan,,Argentina,,AR,ARG,"South America","-32.89846","-60.90681"
Rosario,,Argentina,,AR,ARG,"South America","-32.94682","-60.63932"
"Rosario del Tala",,Argentina,,AR,ARG,"South America","-32.30286","-59.14545"
Rufino,,Argentina,,AR,ARG,"South America","-34.26827","-62.71262"
Saladas,,Argentina,,AR,ARG,"South America","-28.25384","-58.62591"
Salsipuedes,,Argentina,,AR,ARG,"South America","-31.13725","-64.29589"
Salta,,Argentina,,AR,ARG,"South America","-24.7859","-65.41166"
Sampacho,,Argentina,,AR,ARG,"South America","-33.3839","-64.72211"
"San Agustin de Valle Fertil",,Argentina,,AR,ARG,"South America","-30.63353","-67.46821"
"San Antonio Oeste",,Argentina,,AR,ARG,"South America","-40.73193","-64.94769"
"San Benito",,Argentina,,AR,ARG,"South America","-31.78371","-60.44156"
"San Bernardo",,Argentina,,AR,ARG,"South America","-27.28782","-60.71252"
"San Carlos Centro",,Argentina,,AR,ARG,"South America","-31.72864","-61.09192"
"San Carlos de Bariloche",,Argentina,,AR,ARG,"South America","-41.14557","-71.30822"
"San Clemente del Tuyu",,Argentina,,AR,ARG,"South America","-36.35694","-56.72351"
"San Cristobal",,Argentina,,AR,ARG,"South America","-30.31053","-61.23724"
"San Fernando del Valle de Catamarca",,Argentina,,AR,ARG,"South America","-28.46957","-65.78524"
"San Francisco",,Argentina,,AR,ARG,"South America","-31.42797","-62.08266"
"San Isidro",,Argentina,,AR,ARG,"South America","-34.4721","-58.52708"
"San Javier",,Argentina,,AR,ARG,"South America","-30.57781","-59.9317"
"San Jorge",,Argentina,,AR,ARG,"South America","-31.89618","-61.85984"
"San Jose",,Argentina,,AR,ARG,"South America","-27.76979","-55.7826"
"San Jose de Feliciano",,Argentina,,AR,ARG,"South America","-30.38452","-58.75167"
"San Jose de Jachal",,Argentina,,AR,ARG,"South America","-30.24057","-68.74693"
"San Juan",,Argentina,,AR,ARG,"South America","-31.5375","-68.53639"
"San Julian",,Argentina,,AR,ARG,"South America","-49.30554","-67.72743"
"San Justo",,Argentina,,AR,ARG,"South America","-30.78913","-60.59189"
"San Lorenzo",,Argentina,,AR,ARG,"South America","-28.13306","-58.76733"
"San Luis",,Argentina,,AR,ARG,"South America","-33.29501","-66.33563"
"San Luis del Palmar",,Argentina,,AR,ARG,"South America","-27.5079","-58.55454"
"San Martin",,Argentina,,AR,ARG,"South America","-33.08103","-68.46814"
"San Martin de los Andes",,Argentina,,AR,ARG,"South America","-40.15789","-71.35337"
"San Miguel",,Argentina,,AR,ARG,"South America","-27.99585","-57.58964"
"San Miguel de Tucuman",,Argentina,,AR,ARG,"South America","-26.82414","-65.2226"
"San Nicolas de los Arroyos",,Argentina,,AR,ARG,"South America","-33.33425","-60.2108"
"San Pedro",,Argentina,,AR,ARG,"South America","-33.67918","-59.66633"
"San Rafael",,Argentina,,AR,ARG,"South America","-34.61772","-68.33007"
"San Ramon de la Nueva Oran",,Argentina,,AR,ARG,"South America","-23.13705","-64.32426"
"San Salvador",,Argentina,,AR,ARG,"South America","-31.62487","-58.50524"
"San Salvador de Jujuy",,Argentina,,AR,ARG,"South America","-24.19457","-65.29712"
"San Vicente",,Argentina,,AR,ARG,"South America","-26.61667","-54.13333"
"Santa Elena",,Argentina,,AR,ARG,"South America","-30.94768","-59.78696"
"Santa Fe de la Vera Cruz",,Argentina,,AR,ARG,"South America","-31.63333","-60.7"
"Santa Lucia",,Argentina,,AR,ARG,"South America","-28.98746","-59.10287"
"Santa Rosa",,Argentina,,AR,ARG,"South America","-28.26318","-58.11891"
"Santa Rosa de Calamuchita",,Argentina,,AR,ARG,"South America","-32.06905","-64.53631"
"Santa Rosa de Rio Primero",,Argentina,,AR,ARG,"South America","-31.15231","-63.40191"
"Santa Rosa de Tastil",,Argentina,,AR,ARG,"South America","-24.4333333","-65.9499969"
"Santa Sylvina",,Argentina,,AR,ARG,"South America","-27.83261","-61.13747"
"Santiago del Estero",,Argentina,,AR,ARG,"South America","-27.79511","-64.26149"
"Santo Pipo",,Argentina,,AR,ARG,"South America","-27.14132","-55.40867"
"Santo Tome",,Argentina,,AR,ARG,"South America","-28.54939","-56.04077"
Sarmiento,,Argentina,,AR,ARG,"South America","-45.58815","-69.06996"
Sastre,,Argentina,,AR,ARG,"South America","-31.76762","-61.82887"
Senillosa,,Argentina,,AR,ARG,"South America","-39.01412","-68.43281"
"Sierra Colorado",,Argentina,,AR,ARG,"South America","-40.58286009","-67.79998071"
"Sierra Grande",,Argentina,,AR,ARG,"South America","-41.60603","-65.35574"
Simoca,,Argentina,,AR,ARG,"South America","-27.26272","-65.35647"
Sunchales,,Argentina,,AR,ARG,"South America","-30.94404","-61.56148"
"Suncho Corral",,Argentina,,AR,ARG,"South America","-27.93357","-63.42938"
Susques,,Argentina,,AR,ARG,"South America","-23.41667275","-66.4833169"
"Taco Pozo",,Argentina,,AR,ARG,"South America","-25.61667","-63.28333"
"Tafi Viejo",,Argentina,,AR,ARG,"South America","-26.73201","-65.25921"
Tancacha,,Argentina,,AR,ARG,"South America","-32.24309","-63.9807"
Tandil,,Argentina,,AR,ARG,"South America","-37.32167","-59.13316"
Tartagal,,Argentina,,AR,ARG,"South America","-22.51637","-63.80131"
Telsen,,Argentina,,AR,ARG,"South America","-42.39959674","-66.95000676"
"Termas de Rio Hondo",,Argentina,,AR,ARG,"South America","-27.49362","-64.85972"
Tigre,,Argentina,,AR,ARG,"South America","-34.42603","-58.57962"
Tilcara,,Argentina,,AR,ARG,"South America","-23.57757","-65.3509"
Tilisarao,,Argentina,,AR,ARG,"South America","-32.73292","-65.29109"
Tinogasta,,Argentina,,AR,ARG,"South America","-28.06319","-67.56488"
Tostado,,Argentina,,AR,ARG,"South America","-29.23202","-61.76917"
Totoras,,Argentina,,AR,ARG,"South America","-32.5844","-61.16852"
Trancas,,Argentina,,AR,ARG,"South America","-26.21575","-65.28492"
Trelew,,Argentina,,AR,ARG,"South America","-43.24895","-65.30505"
"Tres Arroyos",,Argentina,,AR,ARG,"South America","-38.37394","-60.27978"
"Tres Isletas",,Argentina,,AR,ARG,"South America","-26.34067","-60.43207"
Trevelin,,Argentina,,AR,ARG,"South America","-43.0858","-71.46386"
Tunuyan,,Argentina,,AR,ARG,"South America","-33.56618244","-69.01667647"
Unquillo,,Argentina,,AR,ARG,"South America","-31.23073","-64.31615"
Urdinarrain,,Argentina,,AR,ARG,"South America","-32.68573","-58.89323"
Ushuaia,,Argentina,,AR,ARG,"South America","-54.8","-68.3"
Uspallata,,Argentina,,AR,ARG,"South America","-32.59311522","-69.34598454"
"Valle Hermoso",,Argentina,,AR,ARG,"South America","-31.11732","-64.48084"
"Veinticinco de Mayo",,Argentina,,AR,ARG,"South America","-35.4323","-60.17271"
"Venado Tuerto",,Argentina,,AR,ARG,"South America","-33.74556","-61.96885"
Vera,,Argentina,,AR,ARG,"South America","-29.4593","-60.21261"
Viale,,Argentina,,AR,ARG,"South America","-31.86782","-60.00722"
Victoria,,Argentina,,AR,ARG,"South America","-32.61841","-60.15478"
Victorica,,Argentina,,AR,ARG,"South America","-36.21505","-65.43586"
"Vicuna Mackenna",,Argentina,,AR,ARG,"South America","-33.91965","-64.39215"
Viedma,,Argentina,,AR,ARG,"South America","-40.81345","-62.99668"
"Villa Allende",,Argentina,,AR,ARG,"South America","-31.29458","-64.29538"
"Villa Angela",,Argentina,,AR,ARG,"South America","-27.57383","-60.71526"
"Villa Berthet",,Argentina,,AR,ARG,"South America","-27.29174","-60.41263"
"Villa Canas",,Argentina,,AR,ARG,"South America","-34.00565","-61.60757"
"Villa Carlos Paz",,Argentina,,AR,ARG,"South America","-31.42414","-64.49778"
"Villa Catedral",,Argentina,,AR,ARG,"South America","-41.1673478","-71.4387741"
"Villa Constitucion",,Argentina,,AR,ARG,"South America","-33.22778","-60.3297"
"Villa Dolores",,Argentina,,AR,ARG,"South America","-31.94585","-65.18958"
"Villa Elisa",,Argentina,,AR,ARG,"South America","-32.1632","-58.40082"
"Villa General Belgrano",,Argentina,,AR,ARG,"South America","-31.97542","-64.5559"
"Villa Gesell",,Argentina,,AR,ARG,"South America","-37.26394","-56.97304"
"Villa Hernandarias",,Argentina,,AR,ARG,"South America","-31.23101","-59.985"
"Villa Huidobro",,Argentina,,AR,ARG,"South America","-34.83826","-64.58686"
"Villa La Angostura",,Argentina,,AR,ARG,"South America","-40.76173","-71.64631"
"Villa Lugano",,Argentina,,AR,ARG,"South America","-34.67907","-58.47263"
"Villa Maria",,Argentina,,AR,ARG,"South America","-32.40751","-63.24016"
"Villa Maria Grande",,Argentina,,AR,ARG,"South America","-31.66565","-59.90182"
"Villa Mercedes",,Argentina,,AR,ARG,"South America","-33.67571","-65.45783"
"Villa Nueva",,Argentina,,AR,ARG,"South America","-32.43293","-63.24763"
"Villa Ocampo",,Argentina,,AR,ARG,"South America","-28.48752","-59.35515"
"Villa Ojo de Agua",,Argentina,,AR,ARG,"South America","-29.50003","-63.69377"
"Villa Ortuzar",,Argentina,,AR,ARG,"South America","-34.57973","-58.46829"
"Villa Paula de Sarmiento",,Argentina,,AR,ARG,"South America","-31.4933","-68.53838"
"Villa Regina",,Argentina,,AR,ARG,"South America","-39.1","-67.06667"
"Villa Rumipal",,Argentina,,AR,ARG,"South America","-32.18332111","-64.48328394"
"Villa Santa Rita",,Argentina,,AR,ARG,"South America","-34.61082","-58.481"
"Villa de Soto",,Argentina,,AR,ARG,"South America","-30.85523","-64.99947"
"Villa del Totoral",,Argentina,,AR,ARG,"South America","-30.81667","-63.71667"
Villaguay,,Argentina,,AR,ARG,"South America","-31.8653","-59.02689"
Villalonga,,Argentina,,AR,ARG,"South America","-39.88285114","-62.58332239"
"Yacimiento Rio Turbio",,Argentina,,AR,ARG,"South America","-51.57321","-72.3508"
"Yerba Buena",,Argentina,,AR,ARG,"South America","-26.81667","-65.31667"
Yuto,,Argentina,,AR,ARG,"South America","-23.64342","-64.47194"
Zapala,,Argentina,,AR,ARG,"South America","-38.89916","-70.05442"
Zarate,,Argentina,,AR,ARG,"South America","-34.09814","-59.02858"
Abovyan,,Armenia,,AM,ARM,"Western Asia","40.27368","44.63348"
Agarak,,Armenia,,AM,ARM,"Western Asia","39.2038889","46.5472221"
Aghavnatun,,Armenia,,AM,ARM,"Western Asia","40.2336111","44.2513885"
Akhuryan,,Armenia,,AM,ARM,"Western Asia","40.78003","43.90027"
Alaverdi,,Armenia,,AM,ARM,"Western Asia","41.09766","44.67316"
Aparan,,Armenia,,AM,ARM,"Western Asia","40.59323","44.3589"
Aramus,,Armenia,,AM,ARM,"Western Asia","40.2511111","44.6630554"
Ararat,,Armenia,,AM,ARM,"Western Asia","39.83069","44.70569"
Armavir,,Armenia,,AM,ARM,"Western Asia","40.15446","44.03815"
Arshaluys,,Armenia,,AM,ARM,"Western Asia","40.1688889","44.2141685"
Artashat,,Armenia,,AM,ARM,"Western Asia","39.96144","44.54447"
Arteni,,Armenia,,AM,ARM,"Western Asia","40.2983333","43.7541656"
Artsvaberd,,Armenia,,AM,ARM,"Western Asia","40.8336111","45.4711113"
Ashtarak,,Armenia,,AM,ARM,"Western Asia","40.2991","44.36204"
Astghadzor,,Armenia,,AM,ARM,"Western Asia","40.1238889","45.3566666"
Avshar,,Armenia,,AM,ARM,"Western Asia","39.8405556","44.6836128"
Aygavan,,Armenia,,AM,ARM,"Western Asia","39.8647222","44.6702766"
Aygehovit,,Armenia,,AM,ARM,"Western Asia","40.9744444","45.2519455"
Aygezard,,Armenia,,AM,ARM,"Western Asia","39.9458333","44.6088905"
Azatan,,Armenia,,AM,ARM,"Western Asia","40.7238889","43.8205566"
Bagratashen,,Armenia,,AM,ARM,"Western Asia","41.2458333","44.8211098"
Balahovit,,Armenia,,AM,ARM,"Western Asia","40.2536111","44.6038895"
Bambakashat,,Armenia,,AM,ARM,"Western Asia","40.1144444","44.0122223"
Berd,,Armenia,,AM,ARM,"Western Asia","40.88135","45.38901"
Berdavan,,Armenia,,AM,ARM,"Western Asia","41.2027778","45.003334"
Byurakan,,Armenia,,AM,ARM,"Western Asia","40.3413889","44.273613"
Byureghavan,,Armenia,,AM,ARM,"Western Asia","40.31417","44.59333"
Chambarak,,Armenia,,AM,ARM,"Western Asia","40.59655","45.35498"
Dalarik,,Armenia,,AM,ARM,"Western Asia","40.2183333","43.8602791"
Dilijan,,Armenia,,AM,ARM,"Western Asia","40.7417","44.8501"
Dzoragyugh,,Armenia,,AM,ARM,"Western Asia","40.1752778","45.1749992"
Ejmiatsin,,Armenia,,AM,ARM,"Western Asia","40.16557","44.29462"
Gandzak,,Armenia,,AM,ARM,"Western Asia","40.3147222","45.1113892"
Garrni,,Armenia,,AM,ARM,"Western Asia","40.11931","44.73442"
Gavarr,,Armenia,,AM,ARM,"Western Asia","40.35398","45.12386"
Goris,,Armenia,,AM,ARM,"Western Asia","39.51111","46.34168"
Gyumri,,Armenia,,AM,ARM,"Western Asia","40.7942","43.84528"
Haghartsin,,Armenia,,AM,ARM,"Western Asia","40.7780556","44.9625015"
Hatsavan,,Armenia,,AM,ARM,"Western Asia","39.46405","45.97047"
Hoktember,,Armenia,,AM,ARM,"Western Asia","40.1361111","44.0138893"
Hovtashat,,Armenia,,AM,ARM,"Western Asia","40.1019444","44.3427773"
Hrazdan,,Armenia,,AM,ARM,"Western Asia","40.49748","44.7662"
Ijevan,,Armenia,,AM,ARM,"Western Asia","40.87877","45.14851"
Janfida,,Armenia,,AM,ARM,"Western Asia","40.0455556","44.0208321"
Jermuk,,Armenia,,AM,ARM,"Western Asia","39.8416667","45.6722221"
Jrashen,,Armenia,,AM,ARM,"Western Asia","40.7875","44.1972237"
Kapan,,Armenia,,AM,ARM,"Western Asia","39.20755","46.40576"
Karanlukh,,Armenia,,AM,ARM,"Western Asia","40.10444","45.28972"
Karbi,,Armenia,,AM,ARM,"Western Asia","40.3338889","44.3777771"
Kasakh,,Armenia,,AM,ARM,"Western Asia","40.5333333","44.4166679"
Lchashen,,Armenia,,AM,ARM,"Western Asia","40.5202778","44.9308319"
Malishka,,Armenia,,AM,ARM,"Western Asia","39.7369444","45.3875008"
Maralik,,Armenia,,AM,ARM,"Western Asia","40.5722222","43.8669434"
Margahovit,,Armenia,,AM,ARM,"Western Asia","40.7380556","44.6875"
Marmarashen,,Armenia,,AM,ARM,"Western Asia","40.0575","44.4711113"
Martuni,,Armenia,,AM,ARM,"Western Asia","40.13892","45.30548"
Masis,,Armenia,,AM,ARM,"Western Asia","40.06542","44.41618"
Meghri,,Armenia,,AM,ARM,"Western Asia","38.9022222","46.2383347"
Metsamor,,Armenia,,AM,ARM,"Western Asia","40.07233","44.29169"
Metsavan,,Armenia,,AM,ARM,"Western Asia","41.2016667","44.2288895"
Mrgashat,,Armenia,,AM,ARM,"Western Asia","40.1297222","44.0705566"
Myasnikyan,,Armenia,,AM,ARM,"Western Asia","40.1775","43.9063873"
Nalbandyan,,Armenia,,AM,ARM,"Western Asia","40.0677778","43.9855537"
"Nerkin Getashen",,Armenia,,AM,ARM,"Western Asia","40.14172","45.27087"
"Nor Geghi",,Armenia,,AM,ARM,"Western Asia","40.3211111","44.5797234"
Norashen,,Armenia,,AM,ARM,"Western Asia","40.0041667","44.5947227"
Noratus,,Armenia,,AM,ARM,"Western Asia","40.37793","45.18048"
Noyemberyan,,Armenia,,AM,ARM,"Western Asia","41.17244","44.99917"
Odzun,,Armenia,,AM,ARM,"Western Asia","41.0538889","44.6113892"
Oshakan,,Armenia,,AM,ARM,"Western Asia","40.2705556","44.269165"
Prroshyan,,Armenia,,AM,ARM,"Western Asia","40.2480556","44.4150009"
Sardarapat,,Armenia,,AM,ARM,"Western Asia","40.13206","44.00969"
Sarukhan,,Armenia,,AM,ARM,"Western Asia","40.29169","45.13068"
Sevan,,Armenia,,AM,ARM,"Western Asia","40.5473","44.94171"
Shahumyan,,Armenia,,AM,ARM,"Western Asia","39.9308333","44.5783348"
Shnogh,,Armenia,,AM,ARM,"Western Asia","41.1477778","44.8377762"
Spitak,,Armenia,,AM,ARM,"Western Asia","40.83221","44.26731"
Stepanavan,,Armenia,,AM,ARM,"Western Asia","41.00995","44.38531"
Tashir,,Armenia,,AM,ARM,"Western Asia","41.12072","44.28462"
Tsovagyugh,,Armenia,,AM,ARM,"Western Asia","40.6330556","44.9522209"
Tsovinar,,Armenia,,AM,ARM,"Western Asia","40.1608333","45.4538879"
Vaghashen,,Armenia,,AM,ARM,"Western Asia","40.1377778","45.3291664"
Vanadzor,,Armenia,,AM,ARM,"Western Asia","40.80456","44.4939"
Vardenik,,Armenia,,AM,ARM,"Western Asia","40.13348","45.44311"
Vardenis,,Armenia,,AM,ARM,"Western Asia","40.18329","45.73053"
Vayk,,Armenia,,AM,ARM,"Western Asia","39.6889","45.46668"
Vedi,,Armenia,,AM,ARM,"Western Asia","39.91388","44.7251"
"Verin Artashat",,Armenia,,AM,ARM,"Western Asia","40.0005556","44.5849991"
"Verin Getashen",,Armenia,,AM,ARM,"Western Asia","40.1327778","45.2486115"
Voskevaz,,Armenia,,AM,ARM,"Western Asia","40.2797222","44.2949982"
Vostan,,Armenia,,AM,ARM,"Western Asia","39.9588889","44.559166"
Yeghegnadzor,,Armenia,,AM,ARM,"Western Asia","39.76389","45.33239"
Yeghvard,,Armenia,,AM,ARM,"Western Asia","40.32507","44.48608"
Yeranos,,Armenia,,AM,ARM,"Western Asia","40.2080556","45.1861115"
Yerevan,,Armenia,,AM,ARM,"Western Asia","40.18111","44.51361"
Zovuni,,Armenia,,AM,ARM,"Western Asia","40.5108333","44.4288902"
Oranjestad,,Aruba,,AW,ABW,Caribbean,"12.52398","-70.02703"
Canberra,"Australian Capital Territory",Australia,ACT,AU,AUS,"Australia and New Zealand","-35.28346","149.12807"
Kaleen,"Australian Capital Territory",Australia,ACT,AU,AUS,"Australia and New Zealand","-35.21814","149.10516"
"Albion Park Rail","New South Wales",Australia,NSW,AU,AUS,"Australia and New Zealand","-34.56634","150.79177"
Albury,"New South Wales",Australia,NSW,AU,AUS,"Australia and New Zealand","-36.07482","146.92401"
"Allambie Heights","New South Wales",Australia,NSW,AU,AUS,"Australia and New Zealand","-33.76655","151.24981"
Armidale,"New South Wales",Australia,NSW,AU,AUS,"Australia and New Zealand","-30.50123","151.66553"
Arncliffe,"New South Wales",Australia,NSW,AU,AUS,"Australia and New Zealand","-33.93627","151.14819"
Artarmon,"New South Wales",Australia,NSW,AU,AUS,"Australia and New Zealand","-33.81667","151.18333"
Ashfield,"New South Wales",Australia,NSW,AU,AUS,"Australia and New Zealand","-33.88834","151.12274"
"Bald Hills","New South Wales",Australia,NSW,AU,AUS,"Australia and New Zealand","-27.32112","153.00857"
Balgowlah,"New South Wales",Australia,NSW,AU,AUS,"Australia and New Zealand","-33.79494","151.2572"
Ballina,"New South Wales",Australia,NSW,AU,AUS,"Australia and New Zealand","-28.86414","153.56541"
Balmain,"New South Wales",Australia,NSW,AU,AUS,"Australia and New Zealand","-33.85481","151.1833"
Bankstown,"New South Wales",Australia,NSW,AU,AUS,"Australia and New Zealand","-33.91667","151.03333"
"Banora Point","New South Wales",Australia,NSW,AU,AUS,"Australia and New Zealand","-28.21298","153.53634"
"Barrack Heights","New South Wales",Australia,NSW,AU,AUS,"Australia and New Zealand","-34.56464","150.85692"
"Bateau Bay","New South Wales",Australia,NSW,AU,AUS,"Australia and New Zealand","-33.38334","151.46671"
"Batemans Bay","New South Wales",Australia,NSW,AU,AUS,"Australia and New Zealand","-35.70658","150.17541"
Bathurst,"New South Wales",Australia,NSW,AU,AUS,"Australia and New Zealand","-33.41665","149.5806"
"Baulkham Hills","New South Wales",Australia,NSW,AU,AUS,"Australia and New Zealand","-33.75881","150.99292"
"Beaumont Hills","New South Wales",Australia,NSW,AU,AUS,"Australia and New Zealand","-33.69993","150.9411"
Beecroft,"New South Wales",Australia,NSW,AU,AUS,"Australia and New Zealand","-33.74954","151.0648"
Belfield,"New South Wales",Australia,NSW,AU,AUS,"Australia and New Zealand","-33.90354","151.08467"
"Bellevue Hill","New South Wales",Australia,NSW,AU,AUS,"Australia and New Zealand","-33.87899","151.25101"
"Belmont North","New South Wales",Australia,NSW,AU,AUS,"Australia and New Zealand","-33.02081","151.66849"
Berala,"New South Wales",Australia,NSW,AU,AUS,"Australia and New Zealand","-33.87197","151.03386"
Berkeley,"New South Wales",Australia,NSW,AU,AUS,"Australia and New Zealand","-34.48333","150.85"
"Berkeley Vale","New South Wales",Australia,NSW,AU,AUS,"Australia and New Zealand","-33.35","151.43333"
"Berowra Heights","New South Wales",Australia,NSW,AU,AUS,"Australia and New Zealand","-33.61211","151.13754"
Blacktown,"New South Wales",Australia,NSW,AU,AUS,"Australia and New Zealand","-33.76667","150.91667"
Blakehurst,"New South Wales",Australia,NSW,AU,AUS,"Australia and New Zealand","-33.99152","151.10876"
Blaxland,"New South Wales",Australia,NSW,AU,AUS,"Australia and New Zealand","-33.75","150.6"
Bomaderry,"New South Wales",Australia,NSW,AU,AUS,"Australia and New Zealand","-34.84967","150.61093"
Bondi,"New South Wales",Australia,NSW,AU,AUS,"Australia and New Zealand","-33.89429","151.26444"
"Bondi Beach","New South Wales",Australia,NSW,AU,AUS,"Australia and New Zealand","-33.89079","151.27852"
"Bondi Junction","New South Wales",Australia,NSW,AU,AUS,"Australia and New Zealand","-33.89275","151.24723"
"Bossley Park","New South Wales",Australia,NSW,AU,AUS,"Australia and New Zealand","-33.86184","150.8841"
Botany,"New South Wales",Australia,NSW,AU,AUS,"Australia and New Zealand","-33.94599","151.19591"
Bourke,"New South Wales",Australia,NSW,AU,AUS,"Australia and New Zealand","-30.1","145.9333333"
Bowral,"New South Wales",Australia,NSW,AU,AUS,"Australia and New Zealand","-34.4775","150.4204"
"Brighton-Le-Sands","New South Wales",Australia,NSW,AU,AUS,"Australia and New Zealand","-33.96009","151.1511"
"Broken Hill","New South Wales",Australia,NSW,AU,AUS,"Australia and New Zealand","-31.9652","141.4512"
Bronte,"New South Wales",Australia,NSW,AU,AUS,"Australia and New Zealand","-33.90198","151.26556"
Bulli,"New South Wales",Australia,NSW,AU,AUS,"Australia and New Zealand","-34.33834","150.91347"
Burwood,"New South Wales",Australia,NSW,AU,AUS,"Australia and New Zealand","-37.84978","145.11901"
"Byron Bay","New South Wales",Australia,NSW,AU,AUS,"Australia and New Zealand","-28.64201","153.61194"
Cabramatta,"New South Wales",Australia,NSW,AU,AUS,"Australia and New Zealand","-33.89743","150.93446"
"Cabramatta West","New South Wales",Australia,NSW,AU,AUS,"Australia and New Zealand","-33.89669","150.91056"
"Cambridge Park","New South Wales",Australia,NSW,AU,AUS,"Australia and New Zealand","-33.74784","150.72208"
Cammeray,"New South Wales",Australia,NSW,AU,AUS,"Australia and New Zealand","-33.82132","151.21609"
Campsie,"New South Wales",Australia,NSW,AU,AUS,"Australia and New Zealand","-33.9125","151.10279"
Caringbah,"New South Wales",Australia,NSW,AU,AUS,"Australia and New Zealand","-34.04726","151.12051"
"Caringbah South","New South Wales",Australia,NSW,AU,AUS,"Australia and New Zealand","-34.05662","151.12149"
Carlingford,"New South Wales",Australia,NSW,AU,AUS,"Australia and New Zealand","-33.78269","151.04888"
Casino,"New South Wales",Australia,NSW,AU,AUS,"Australia and New Zealand","-28.85819","153.04748"
"Castle Hill","New South Wales",Australia,NSW,AU,AUS,"Australia and New Zealand","-33.73333",151
Casula,"New South Wales",Australia,NSW,AU,AUS,"Australia and New Zealand","-33.95222","150.89949"
"Central Coast","New South Wales",Australia,NSW,AU,AUS,"Australia and New Zealand","-33.42004148","151.3000048"
Cessnock,"New South Wales",Australia,NSW,AU,AUS,"Australia and New Zealand","-32.83211","151.35623"
Charlestown,"New South Wales",Australia,NSW,AU,AUS,"Australia and New Zealand","-32.95","151.66667"
Chatswood,"New South Wales",Australia,NSW,AU,AUS,"Australia and New Zealand","-33.8","151.18333"
Cherrybrook,"New South Wales",Australia,NSW,AU,AUS,"Australia and New Zealand","-33.72197","151.04607"
"Chipping Norton","New South Wales",Australia,NSW,AU,AUS,"Australia and New Zealand","-33.9","150.95"
Clontarf,"New South Wales",Australia,NSW,AU,AUS,"Australia and New Zealand","-27.25341","153.07835"
"Coffs Harbour","New South Wales",Australia,NSW,AU,AUS,"Australia and New Zealand","-30.29626","153.11351"
Como,"New South Wales",Australia,NSW,AU,AUS,"Australia and New Zealand","-31.99119","115.86336"
Concord,"New South Wales",Australia,NSW,AU,AUS,"Australia and New Zealand","-33.84722","151.10381"
"Concord West","New South Wales",Australia,NSW,AU,AUS,"Australia and New Zealand","-33.84809","151.08609"
Cooma,"New South Wales",Australia,NSW,AU,AUS,"Australia and New Zealand","-36.23517","149.12408"
"Cordeaux Heights","New South Wales",Australia,NSW,AU,AUS,"Australia and New Zealand","-34.44043","150.83748"
Corlette,"New South Wales",Australia,NSW,AU,AUS,"Australia and New Zealand","-32.72014","152.10846"
Corowa,"New South Wales",Australia,NSW,AU,AUS,"Australia and New Zealand","-35.99704","146.38552"
Corrimal,"New South Wales",Australia,NSW,AU,AUS,"Australia and New Zealand","-34.37864","150.90356"
Cowra,"New South Wales",Australia,NSW,AU,AUS,"Australia and New Zealand","-33.83554","148.69663"
Cronulla,"New South Wales",Australia,NSW,AU,AUS,"Australia and New Zealand","-34.06251","151.14961"
Dapto,"New South Wales",Australia,NSW,AU,AUS,"Australia and New Zealand","-34.5","150.78333"
Darlinghurst,"New South Wales",Australia,NSW,AU,AUS,"Australia and New Zealand","-33.87939","151.21925"
"Dee Why","New South Wales",Australia,NSW,AU,AUS,"Australia and New Zealand","-33.75","151.3"
Deniliquin,"New South Wales",Australia,NSW,AU,AUS,"Australia and New Zealand","-35.53245","144.95364"
Doonside,"New South Wales",Australia,NSW,AU,AUS,"Australia and New Zealand","-33.76667","150.86667"
Drummoyne,"New South Wales",Australia,NSW,AU,AUS,"Australia and New Zealand","-33.85237","151.15491"
Dubbo,"New South Wales",Australia,NSW,AU,AUS,"Australia and New Zealand","-32.24295","148.60484"
"Dulwich Hill","New South Wales",Australia,NSW,AU,AUS,"Australia and New Zealand","-33.9041","151.13945"
Earlwood,"New South Wales",Australia,NSW,AU,AUS,"Australia and New Zealand","-33.95","151.1"
"East Albury","New South Wales",Australia,NSW,AU,AUS,"Australia and New Zealand","-36.08144","146.92991"
"East Ballina","New South Wales",Australia,NSW,AU,AUS,"Australia and New Zealand","-28.85709","153.58736"
"East Lismore","New South Wales",Australia,NSW,AU,AUS,"Australia and New Zealand","-28.82591","153.2888"
"East Maitland","New South Wales",Australia,NSW,AU,AUS,"Australia and New Zealand","-32.75","151.58333"
Eastwood,"New South Wales",Australia,NSW,AU,AUS,"Australia and New Zealand","-33.79176","151.08057"
Eleebana,"New South Wales",Australia,NSW,AU,AUS,"Australia and New Zealand","-32.9896","151.63642"
"Elermore Vale","New South Wales",Australia,NSW,AU,AUS,"Australia and New Zealand","-32.91621","151.67665"
Engadine,"New South Wales",Australia,NSW,AU,AUS,"Australia and New Zealand","-34.06564","151.01266"
Ermington,"New South Wales",Australia,NSW,AU,AUS,"Australia and New Zealand","-33.81483","151.05467"
Fairfield,"New South Wales",Australia,NSW,AU,AUS,"Australia and New Zealand","-33.86667","150.95"
"Fairfield East","New South Wales",Australia,NSW,AU,AUS,"Australia and New Zealand","-33.86938","150.97129"
"Fairfield Heights","New South Wales",Australia,NSW,AU,AUS,"Australia and New Zealand","-33.86445","150.93884"
Fairlight,"New South Wales",Australia,NSW,AU,AUS,"Australia and New Zealand","-33.79575","151.27346"
"Fairy Meadow","New South Wales",Australia,NSW,AU,AUS,"Australia and New Zealand","-34.39303","150.89275"
Forbes,"New South Wales",Australia,NSW,AU,AUS,"Australia and New Zealand","-33.38960407","148.0199983"
"Forest Hill","New South Wales",Australia,NSW,AU,AUS,"Australia and New Zealand","-37.83333","145.18333"
Forestville,"New South Wales",Australia,NSW,AU,AUS,"Australia and New Zealand","-33.76667","151.20833"
Forster,"New South Wales",Australia,NSW,AU,AUS,"Australia and New Zealand","-32.18136","152.51715"
"Forster-Tuncurry","New South Wales",Australia,NSW,AU,AUS,"Australia and New Zealand","-32.19313963","152.5266483"
Gladesville,"New South Wales",Australia,NSW,AU,AUS,"Australia and New Zealand","-33.83333","151.13333"
"Glen Innes","New South Wales",Australia,NSW,AU,AUS,"Australia and New Zealand","-29.73485","151.7385"
Glenbrook,"New South Wales",Australia,NSW,AU,AUS,"Australia and New Zealand","-33.76667","150.61667"
Glendenning,"New South Wales",Australia,NSW,AU,AUS,"Australia and New Zealand","-33.7483","150.85411"
Glenfield,"New South Wales",Australia,NSW,AU,AUS,"Australia and New Zealand","-33.96667","150.9"
Glenhaven,"New South Wales",Australia,NSW,AU,AUS,"Australia and New Zealand","-33.7",151
"Glenmore Park","New South Wales",Australia,NSW,AU,AUS,"Australia and New Zealand","-33.79068","150.6693"
Goonellabah,"New South Wales",Australia,NSW,AU,AUS,"Australia and New Zealand","-28.81667","153.31667"
Gorokan,"New South Wales",Australia,NSW,AU,AUS,"Australia and New Zealand","-33.25764","151.5097"
Goulburn,"New South Wales",Australia,NSW,AU,AUS,"Australia and New Zealand","-34.75155","149.72086"
Grafton,"New South Wales",Australia,NSW,AU,AUS,"Australia and New Zealand","-29.68104","152.93394"
Granville,"New South Wales",Australia,NSW,AU,AUS,"Australia and New Zealand","-33.83333","151.01667"
Greenwich,"New South Wales",Australia,NSW,AU,AUS,"Australia and New Zealand","-33.83954","151.183"
Greystanes,"New South Wales",Australia,NSW,AU,AUS,"Australia and New Zealand","-33.82346","150.94607"
Griffith,"New South Wales",Australia,NSW,AU,AUS,"Australia and New Zealand","-34.28853","146.05093"
Gunnedah,"New South Wales",Australia,NSW,AU,AUS,"Australia and New Zealand","-30.98065","150.25838"
Gymea,"New South Wales",Australia,NSW,AU,AUS,"Australia and New Zealand","-34.03637","151.08528"
"Gymea Bay","New South Wales",Australia,NSW,AU,AUS,"Australia and New Zealand","-34.05209","151.08795"
Haberfield,"New South Wales",Australia,NSW,AU,AUS,"Australia and New Zealand","-33.88296","151.14389"
"Harris Park","New South Wales",Australia,NSW,AU,AUS,"Australia and New Zealand","-33.82285","151.00781"
Helensburgh,"New South Wales",Australia,NSW,AU,AUS,"Australia and New Zealand","-34.17836","150.99522"
Hornsby,"New South Wales",Australia,NSW,AU,AUS,"Australia and New Zealand","-33.70244","151.09931"
"Hornsby Heights","New South Wales",Australia,NSW,AU,AUS,"Australia and New Zealand","-33.6713","151.09428"
"Hunters Hill","New South Wales",Australia,NSW,AU,AUS,"Australia and New Zealand","-33.83432","151.1459"
Hurstville,"New South Wales",Australia,NSW,AU,AUS,"Australia and New Zealand","-33.9677","151.10149"
Ingleburn,"New South Wales",Australia,NSW,AU,AUS,"Australia and New Zealand","-34","150.86667"
Inverell,"New South Wales",Australia,NSW,AU,AUS,"Australia and New Zealand","-29.77403","151.11166"
Jannali,"New South Wales",Australia,NSW,AU,AUS,"Australia and New Zealand","-34.01643","151.06065"
Katoomba,"New South Wales",Australia,NSW,AU,AUS,"Australia and New Zealand","-33.71977","150.30739"
Kellyville,"New South Wales",Australia,NSW,AU,AUS,"Australia and New Zealand","-33.71028","150.95095"
Kelso,"New South Wales",Australia,NSW,AU,AUS,"Australia and New Zealand","-33.41667","149.6"
Kempsey,"New South Wales",Australia,NSW,AU,AUS,"Australia and New Zealand","-31.07898","152.83093"
Kensington,"New South Wales",Australia,NSW,AU,AUS,"Australia and New Zealand","-33.92019","151.22241"
Kenthurst,"New South Wales",Australia,NSW,AU,AUS,"Australia and New Zealand","-33.65527","151.00503"
Kiama,"New South Wales",Australia,NSW,AU,AUS,"Australia and New Zealand","-34.66828","150.85219"
Killara,"New South Wales",Australia,NSW,AU,AUS,"Australia and New Zealand","-33.76604","151.16213"
Kingscliff,"New South Wales",Australia,NSW,AU,AUS,"Australia and New Zealand","-28.25983","153.57816"
Kingsford,"New South Wales",Australia,NSW,AU,AUS,"Australia and New Zealand","-33.92399","151.22749"
Kirrawee,"New South Wales",Australia,NSW,AU,AUS,"Australia and New Zealand","-34.03831","151.06903"
"Kurri Kurri","New South Wales",Australia,NSW,AU,AUS,"Australia and New Zealand","-32.81933","151.47908"
"Lake Albert","New South Wales",Australia,NSW,AU,AUS,"Australia and New Zealand","-35.16667","147.38333"
Lakemba,"New South Wales",Australia,NSW,AU,AUS,"Australia and New Zealand","-33.91972","151.07592"
"Lane Cove North","New South Wales",Australia,NSW,AU,AUS,"Australia and New Zealand","-33.80543","151.16638"
Lavington,"New South Wales",Australia,NSW,AU,AUS,"Australia and New Zealand","-36.03976","146.93958"
Leeton,"New South Wales",Australia,NSW,AU,AUS,"Australia and New Zealand","-34.55105","146.40483"
Leichhardt,"New South Wales",Australia,NSW,AU,AUS,"Australia and New Zealand","-33.88341","151.15625"
Leumeah,"New South Wales",Australia,NSW,AU,AUS,"Australia and New Zealand","-34.05","150.83333"
Lidcombe,"New South Wales",Australia,NSW,AU,AUS,"Australia and New Zealand","-33.86436","151.0397"
Lilyfield,"New South Wales",Australia,NSW,AU,AUS,"Australia and New Zealand","-33.87499","151.1653"
Lindfield,"New South Wales",Australia,NSW,AU,AUS,"Australia and New Zealand","-33.78333","151.16667"
Lisarow,"New South Wales",Australia,NSW,AU,AUS,"Australia and New Zealand","-33.38333","151.36667"
Lismore,"New South Wales",Australia,NSW,AU,AUS,"Australia and New Zealand","-28.81354","153.2773"
Lithgow,"New South Wales",Australia,NSW,AU,AUS,"Australia and New Zealand","-33.4845","150.14903"
Liverpool,"New South Wales",Australia,NSW,AU,AUS,"Australia and New Zealand","-33.91938","150.92588"
"Long Jetty","New South Wales",Australia,NSW,AU,AUS,"Australia and New Zealand","-33.35795","151.48135"
Lugarno,"New South Wales",Australia,NSW,AU,AUS,"Australia and New Zealand","-33.98267","151.04184"
"Macquarie Park","New South Wales",Australia,NSW,AU,AUS,"Australia and New Zealand","-33.775","151.11248"
Manly,"New South Wales",Australia,NSW,AU,AUS,"Australia and New Zealand","-33.79798","151.28826"
Maroubra,"New South Wales",Australia,NSW,AU,AUS,"Australia and New Zealand","-33.95","151.23333"
Marrickville,"New South Wales",Australia,NSW,AU,AUS,"Australia and New Zealand","-33.90318","151.15176"
Marsfield,"New South Wales",Australia,NSW,AU,AUS,"Australia and New Zealand","-33.77784","151.10574"
Mascot,"New South Wales",Australia,NSW,AU,AUS,"Australia and New Zealand","-33.92598","151.19347"
Matraville,"New South Wales",Australia,NSW,AU,AUS,"Australia and New Zealand","-33.95","151.23333"
Medowie,"New South Wales",Australia,NSW,AU,AUS,"Australia and New Zealand","-32.7415","151.8676"
Menai,"New South Wales",Australia,NSW,AU,AUS,"Australia and New Zealand","-34.01667","151.01667"
Merimbula,"New South Wales",Australia,NSW,AU,AUS,"Australia and New Zealand","-36.88901","149.90961"
Merrylands,"New South Wales",Australia,NSW,AU,AUS,"Australia and New Zealand","-33.83333","150.98333"
Miranda,"New South Wales",Australia,NSW,AU,AUS,"Australia and New Zealand","-34.03857","151.10005"
Mittagong,"New South Wales",Australia,NSW,AU,AUS,"Australia and New Zealand","-34.45002","150.44572"
Moree,"New South Wales",Australia,NSW,AU,AUS,"Australia and New Zealand","-29.46278","149.84157"
Mortdale,"New South Wales",Australia,NSW,AU,AUS,"Australia and New Zealand","-33.96667","151.08333"
Mosman,"New South Wales",Australia,NSW,AU,AUS,"Australia and New Zealand","-33.83902","151.23956"
"Moss Vale","New South Wales",Australia,NSW,AU,AUS,"Australia and New Zealand","-34.55374","150.37115"
"Mount Colah","New South Wales",Australia,NSW,AU,AUS,"Australia and New Zealand","-33.68333","151.11667"
"Mount Druitt","New South Wales",Australia,NSW,AU,AUS,"Australia and New Zealand","-33.76667","150.81667"
Mudgee,"New South Wales",Australia,NSW,AU,AUS,"Australia and New Zealand","-32.59426","149.5871"
Murwillumbah,"New South Wales",Australia,NSW,AU,AUS,"Australia and New Zealand","-28.32732","153.39339"
Muswellbrook,"New South Wales",Australia,NSW,AU,AUS,"Australia and New Zealand","-32.26118","150.89009"
Nambucca,"New South Wales",Australia,NSW,AU,AUS,"Australia and New Zealand","-30.63333","152.98333"
"Nambucca Heads","New South Wales",Australia,NSW,AU,AUS,"Australia and New Zealand","-30.64318","153.00884"
Narara,"New South Wales",Australia,NSW,AU,AUS,"Australia and New Zealand","-33.4","151.35"
Narellan,"New South Wales",Australia,NSW,AU,AUS,"Australia and New Zealand","-34.03333","150.73333"
"Narellan Vale","New South Wales",Australia,NSW,AU,AUS,"Australia and New Zealand","-34.04974","150.74392"
Narrabeen,"New South Wales",Australia,NSW,AU,AUS,"Australia and New Zealand","-33.71277","151.29736"
Narrabri,"New South Wales",Australia,NSW,AU,AUS,"Australia and New Zealand","-30.32488","149.78266"
Narraweena,"New South Wales",Australia,NSW,AU,AUS,"Australia and New Zealand","-33.75519","151.27659"
"Nelson Bay","New South Wales",Australia,NSW,AU,AUS,"Australia and New Zealand","-32.72043","152.14398"
"Neutral Bay","New South Wales",Australia,NSW,AU,AUS,"Australia and New Zealand","-33.83784","151.2175"
Newcastle,"New South Wales",Australia,NSW,AU,AUS,"Australia and New Zealand","-32.92715","151.77647"
"North Albury","New South Wales",Australia,NSW,AU,AUS,"Australia and New Zealand","-36.05745","146.92995"
"North Bondi","New South Wales",Australia,NSW,AU,AUS,"Australia and New Zealand","-33.88787","151.28075"
"North Narrabeen","New South Wales",Australia,NSW,AU,AUS,"Australia and New Zealand","-33.70935","151.29607"
"North Ryde","New South Wales",Australia,NSW,AU,AUS,"Australia and New Zealand","-33.79677","151.12436"
"North Sydney","New South Wales",Australia,NSW,AU,AUS,"Australia and New Zealand","-33.839","151.2072"
Northmead,"New South Wales",Australia,NSW,AU,AUS,"Australia and New Zealand","-33.78333","150.98333"
Nowra,"New South Wales",Australia,NSW,AU,AUS,"Australia and New Zealand","-34.88422","150.60036"
Oatley,"New South Wales",Australia,NSW,AU,AUS,"Australia and New Zealand","-33.98004","151.07201"
Orange,"New South Wales",Australia,NSW,AU,AUS,"Australia and New Zealand","-33.28397","149.10018"
Paddington,"New South Wales",Australia,NSW,AU,AUS,"Australia and New Zealand","-33.88419","151.23151"
"Palm Beach","New South Wales",Australia,NSW,AU,AUS,"Australia and New Zealand","-28.11694","153.46584"
Parkes,"New South Wales",Australia,NSW,AU,AUS,"Australia and New Zealand","-33.1372","148.1759"
Parramatta,"New South Wales",Australia,NSW,AU,AUS,"Australia and New Zealand","-33.8178","151.00348"
"Pennant Hills","New South Wales",Australia,NSW,AU,AUS,"Australia and New Zealand","-33.73783","151.07216"
Penrith,"New South Wales",Australia,NSW,AU,AUS,"Australia and New Zealand","-33.75","150.7"
Penshurst,"New South Wales",Australia,NSW,AU,AUS,"Australia and New Zealand","-33.96667","151.08333"
"Port Macquarie","New South Wales",Australia,NSW,AU,AUS,"Australia and New Zealand","-31.43084","152.90894"
Prestons,"New South Wales",Australia,NSW,AU,AUS,"Australia and New Zealand","-33.94185","150.8717"
Punchbowl,"New South Wales",Australia,NSW,AU,AUS,"Australia and New Zealand","-33.92893","151.05111"
Pymble,"New South Wales",Australia,NSW,AU,AUS,"Australia and New Zealand","-33.74386","151.14188"
"Quakers Hill","New South Wales",Australia,NSW,AU,AUS,"Australia and New Zealand","-33.73333","150.88333"
Queanbeyan,"New South Wales",Australia,NSW,AU,AUS,"Australia and New Zealand","-35.35493","149.232"
Randwick,"New South Wales",Australia,NSW,AU,AUS,"Australia and New Zealand","-33.91439","151.24895"
Rathmines,"New South Wales",Australia,NSW,AU,AUS,"Australia and New Zealand","-33.03773","151.58443"
"Raymond Terrace","New South Wales",Australia,NSW,AU,AUS,"Australia and New Zealand","-32.75","151.75"
Redfern,"New South Wales",Australia,NSW,AU,AUS,"Australia and New Zealand","-33.89279","151.20415"
Riverstone,"New South Wales",Australia,NSW,AU,AUS,"Australia and New Zealand","-33.68333","150.86667"
"Rouse Hill","New South Wales",Australia,NSW,AU,AUS,"Australia and New Zealand","-33.68207","150.9154"
Rutherford,"New South Wales",Australia,NSW,AU,AUS,"Australia and New Zealand","-32.71667","151.53333"
Sawtell,"New South Wales",Australia,NSW,AU,AUS,"Australia and New Zealand","-30.3833333","153.1000061"
Scone,"New South Wales",Australia,NSW,AU,AUS,"Australia and New Zealand","-32.07960651","150.8501098"
Singleton,"New South Wales",Australia,NSW,AU,AUS,"Australia and New Zealand","-32.56742","151.16603"
"South Coogee","New South Wales",Australia,NSW,AU,AUS,"Australia and New Zealand","-33.93106","151.25599"
"South Grafton","New South Wales",Australia,NSW,AU,AUS,"Australia and New Zealand","-29.7076","152.92627"
"South Tamworth","New South Wales",Australia,NSW,AU,AUS,"Australia and New Zealand","-31.11","150.92254"
"South Windsor","New South Wales",Australia,NSW,AU,AUS,"Australia and New Zealand","-33.61808","150.80443"
Springwood,"New South Wales",Australia,NSW,AU,AUS,"Australia and New Zealand","-27.61183","153.12899"
"St Albans","New South Wales",Australia,NSW,AU,AUS,"Australia and New Zealand","-37.74496","144.80049"
"St Clair","New South Wales",Australia,NSW,AU,AUS,"Australia and New Zealand","-33.79728","150.7847"
"Stanhope Gardens","New South Wales",Australia,NSW,AU,AUS,"Australia and New Zealand","-33.72206","150.92597"
Strathfield,"New South Wales",Australia,NSW,AU,AUS,"Australia and New Zealand","-33.88096","151.07986"
"Summer Hill","New South Wales",Australia,NSW,AU,AUS,"Australia and New Zealand","-33.89146","151.13825"
Sydney,"New South Wales",Australia,NSW,AU,AUS,"Australia and New Zealand","-33.86785","151.20732"
Tamworth,"New South Wales",Australia,NSW,AU,AUS,"Australia and New Zealand","-31.09048","150.92905"
Taree,"New South Wales",Australia,NSW,AU,AUS,"Australia and New Zealand","-31.91099","152.45387"
Telopea,"New South Wales",Australia,NSW,AU,AUS,"Australia and New Zealand","-33.79279","151.03858"
Toongabbie,"New South Wales",Australia,NSW,AU,AUS,"Australia and New Zealand","-33.78333","150.95"
Toormina,"New South Wales",Australia,NSW,AU,AUS,"Australia and New Zealand","-30.35384","153.08843"
Toronto,"New South Wales",Australia,NSW,AU,AUS,"Australia and New Zealand","-33.01357","151.59373"
Tumut,"New South Wales",Australia,NSW,AU,AUS,"Australia and New Zealand","-35.30642","148.21818"
"Tweed Heads","New South Wales",Australia,NSW,AU,AUS,"Australia and New Zealand","-28.1825834","153.5466377"
"Tweed Heads West","New South Wales",Australia,NSW,AU,AUS,"Australia and New Zealand","-28.18736","153.52278"
Ulladulla,"New South Wales",Australia,NSW,AU,AUS,"Australia and New Zealand","-35.35906","150.47247"
Umina,"New South Wales",Australia,NSW,AU,AUS,"Australia and New Zealand","-33.52314","151.31325"
"Wagga Wagga","New South Wales",Australia,NSW,AU,AUS,"Australia and New Zealand","-35.12577","147.35375"
Wahroonga,"New South Wales",Australia,NSW,AU,AUS,"Australia and New Zealand","-33.71816","151.11561"
Wellington,"New South Wales",Australia,NSW,AU,AUS,"Australia and New Zealand","-32.55588","148.94508"
"West Ryde","New South Wales",Australia,NSW,AU,AUS,"Australia and New Zealand","-33.80543","151.07386"
Westmead,"New South Wales",Australia,NSW,AU,AUS,"Australia and New Zealand","-33.80383","150.98768"
Wilcannia,"New South Wales",Australia,NSW,AU,AUS,"Australia and New Zealand","-31.56620115","143.3833304"
Windsor,"New South Wales",Australia,NSW,AU,AUS,"Australia and New Zealand","-27.43631","153.02882"
Wollongong,"New South Wales",Australia,NSW,AU,AUS,"Australia and New Zealand","-34.424","150.89345"
Wollstonecraft,"New South Wales",Australia,NSW,AU,AUS,"Australia and New Zealand","-33.8328","151.18981"
Woollahra,"New South Wales",Australia,NSW,AU,AUS,"Australia and New Zealand","-33.8878","151.23681"
Yagoona,"New South Wales",Australia,NSW,AU,AUS,"Australia and New Zealand","-33.9049","151.01996"
Yamba,"New South Wales",Australia,NSW,AU,AUS,"Australia and New Zealand","-29.42299136","153.353312"
Yass,"New South Wales",Australia,NSW,AU,AUS,"Australia and New Zealand","-34.84036","148.90987"
Young,"New South Wales",Australia,NSW,AU,AUS,"Australia and New Zealand","-34.3135","148.30107"
"Adelaide River","Northern Territory",Australia,NT,AU,AUS,"Australia and New Zealand","-13.2495414","131.0999975"
"Alice Springs","Northern Territory",Australia,NT,AU,AUS,"Australia and New Zealand","-23.69748","133.88362"
Darwin,"Northern Territory",Australia,NT,AU,AUS,"Australia and New Zealand","-12.46113","130.84185"
Erldunda,"Northern Territory",Australia,NT,AU,AUS,"Australia and New Zealand","-25.23330605","133.1999727"
Kaltukatjara,"Northern Territory",Australia,NT,AU,AUS,"Australia and New Zealand","-25.78841429","128.9973352"
Katherine,"Northern Territory",Australia,NT,AU,AUS,"Australia and New Zealand","-14.46517","132.26347"
"McMinns Lagoon","Northern Territory",Australia,NT,AU,AUS,"Australia and New Zealand","-12.55397","131.11165"
"Newcastle Waters","Northern Territory",Australia,NT,AU,AUS,"Australia and New Zealand","-17.55279295","133.4672432"
Palmerston,"Northern Territory",Australia,NT,AU,AUS,"Australia and New Zealand","-12.48602","130.9833"
"Pine Creek","Northern Territory",Australia,NT,AU,AUS,"Australia and New Zealand","-13.81617348","131.816698"
"Tennant Creek","Northern Territory",Australia,NT,AU,AUS,"Australia and New Zealand","-19.65002928","134.200015"
Yulara,"Northern Territory",Australia,NT,AU,AUS,"Australia and New Zealand","-25.24054075","130.9888932"
Annerley,Queensland,Australia,QLD,AU,AUS,"Australia and New Zealand","-27.51228","153.03248"
Atherton,Queensland,Australia,QLD,AU,AUS,"Australia and New Zealand","-17.26864","145.47522"
Ayr,Queensland,Australia,QLD,AU,AUS,"Australia and New Zealand","-19.57393","147.40666"
Barcaldine,Queensland,Australia,QLD,AU,AUS,"Australia and New Zealand","-23.56617267","145.2833695"
Bedourie,Queensland,Australia,QLD,AU,AUS,"Australia and New Zealand","-24.34958738","139.4666186"
Beenleigh,Queensland,Australia,QLD,AU,AUS,"Australia and New Zealand","-27.71137","153.2029"
Biloela,Queensland,Australia,QLD,AU,AUS,"Australia and New Zealand","-24.39589","150.51504"
Birdsville,Queensland,Australia,QLD,AU,AUS,"Australia and New Zealand","-25.89962197","139.3666247"
Blackwater,Queensland,Australia,QLD,AU,AUS,"Australia and New Zealand","-23.58351","148.87912"
Bongaree,Queensland,Australia,QLD,AU,AUS,"Australia and New Zealand","-27.08367","153.15942"
Booval,Queensland,Australia,QLD,AU,AUS,"Australia and New Zealand","-27.61328","152.78944"
Boulia,Queensland,Australia,QLD,AU,AUS,"Australia and New Zealand","-22.89959837","139.9000288"
Bowen,Queensland,Australia,QLD,AU,AUS,"Australia and New Zealand","-20.01367","148.24754"
"Bracken Ridge",Queensland,Australia,QLD,AU,AUS,"Australia and New Zealand","-27.3171","153.03097"
Brassall,Queensland,Australia,QLD,AU,AUS,"Australia and New Zealand","-27.59753","152.74755"
Brisbane,Queensland,Australia,QLD,AU,AUS,"Australia and New Zealand","-27.46794","153.02809"
Buderim,Queensland,Australia,QLD,AU,AUS,"Australia and New Zealand","-26.68443","153.05705"
Bundaberg,Queensland,Australia,QLD,AU,AUS,"Australia and New Zealand","-24.86621","152.3479"
Bundamba,Queensland,Australia,QLD,AU,AUS,"Australia and New Zealand","-27.60947","152.81133"
Burketown,Queensland,Australia,QLD,AU,AUS,"Australia and New Zealand","-17.71609048","139.5666125"
"Burleigh Waters",Queensland,Australia,QLD,AU,AUS,"Australia and New Zealand","-28.09975","153.42463"
